{"type":"FeatureCollection","features":[{"type":"Feature","geometry":{"type":"Point","coordinates":[120.857886,21.897596]},"properties":{"poiId":"8ca57c426f844882b48848da116e5a17.16","title":"臺灣四極點 - 最南點","type":"POKESTOP","status":"ACTIVE","s2L14":"3471ad7d"}},{"type":"Feature","geometry":{"type":"Point","coordinates":[120.857763,21.898083]},"properties":{"poiId":"b1745aaed0243b939b2f183573ad4974.16","title":"三蝴蝶地磚","type":"GYM","status":"ACTIVE","s2L14":"3471ad7d"}},{"type":"Feature","geometry":{"type":"Point","coordinates":[120.851706,21.90179]},"properties":{"poiId":"d851cb2f9f113929b0a63a513c9fae5e.16","title":"一條連結世界的鋼索 - 雙生","type":"POWERSPOT","status":"INACTIVE","s2L14":"3471ad7f"}},{"type":"Feature","geometry":{"type":"Point","coordinates":[120.854759,21.900123]},"properties":{"poiId":"2286aa31d91f405b9a23217a503083b9.16","title":"水池","type":"POKESTOP","status":"ACTIVE","s2L14":"3471ad7f"}},{"type":"Feature","geometry":{"type":"Point","coordinates":[120.851623,21.901976]},"properties":{"poiId":"a27c8daab43b433197da494a6008fe49.11","title":"臺灣八景鵝鑾鼻石碑","type":"GYM","status":"ACTIVE","s2L14":"3471ad7f"}},{"type":"Feature","geometry":{"type":"Point","coordinates":[120.850311,21.899608]},"properties":{"poiId":"a2bd9c520ab63398af44aa884829303c.16","title":"觀海平台長椅","type":"POKESTOP","status":"ACTIVE","s2L14":"3471ad7f"}},{"type":"Feature","geometry":{"type":"Point","coordinates":[120.850654,21.900032]},"properties":{"poiId":"b735043437554070b13ca56be8d409a5.16","title":"海濱棧道","type":"POKESTOP","status":"ACTIVE","s2L14":"3471ad7f"}},{"type":"Feature","geometry":{"type":"Point","coordinates":[120.854535,21.899171]},"properties":{"poiId":"4c1f4ec09c6f4d08b2d0ae8b8ff0da46.16","title":"最南點500m","type":"GYM","status":"ACTIVE","s2L14":"3471ad7f"}},{"type":"Feature","geometry":{"type":"Point","coordinates":[120.855142,21.898677]},"properties":{"poiId":"09bb448f207a349baa4af2b4126f8fce.16","title":"蝴蝶地磚","type":"POKESTOP","status":"ACTIVE","s2L14":"3471ad7f"}},{"type":"Feature","geometry":{"type":"Point","coordinates":[120.852537,21.901794]},"properties":{"poiId":"1e796e63268e4041bad7fff29b687dae.16","title":"鵝鑾鼻燈塔解說牌","type":"POKESTOP","status":"ACTIVE","s2L14":"3471ad7f"}},{"type":"Feature","geometry":{"type":"Point","coordinates":[120.852118,21.899777]},"properties":{"poiId":"8f3b60d7fb2946eaa73fc494c04d5bd5.16","title":"六角石頭涼亭","type":"POKESTOP","status":"ACTIVE","s2L14":"3471ad7f"}},{"type":"Feature","geometry":{"type":"Point","coordinates":[120.854698,21.900989]},"properties":{"poiId":"af8d4ce4f40a4cb483c5208e43ca44de.16","title":"墾丁氣象雷達站","type":"POKESTOP","status":"ACTIVE","s2L14":"3471ad7f"}},{"type":"Feature","geometry":{"type":"Point","coordinates":[120.850519,21.900911]},"properties":{"poiId":"3ef1613cc9d643c9a98cc78b8469233a.16","title":"涼亭","type":"POKESTOP","status":"ACTIVE","s2L14":"3471ad7f"}},{"type":"Feature","geometry":{"type":"Point","coordinates":[120.852058,21.899545]},"properties":{"poiId":"e4f862bcc9d44838943fd78758bd2b59.16","title":"公園地圖","type":"POWERSPOT","status":"INACTIVE","s2L14":"3471ad7f"}},{"type":"Feature","geometry":{"type":"Point","coordinates":[120.853297,21.901516]},"properties":{"poiId":"1bbf28a5165c4f58991aff7935730b98.11","title":"天涯海角","type":"POKESTOP","status":"ACTIVE","s2L14":"3471ad7f"}},{"type":"Feature","geometry":{"type":"Point","coordinates":[120.853903,21.899548]},"properties":{"poiId":"433e0e89d30d484e90623f5ef0d49516.16","title":"我在墾丁最南點","type":"POKESTOP","status":"ACTIVE","s2L14":"3471ad7f"}},{"type":"Feature","geometry":{"type":"Point","coordinates":[120.851821,21.898714]},"properties":{"poiId":"5e4db38f38614ad28fb0ebc3ee19c36d.16","title":"鵝鑾鼻觀景平台","type":"POKESTOP","status":"ACTIVE","s2L14":"3471ad7f"}},{"type":"Feature","geometry":{"type":"Point","coordinates":[120.850276,21.90203]},"properties":{"poiId":"88f968f6a7ea4bfe8fbbd73883e09653.16","title":"幽谷涼亭","type":"POKESTOP","status":"ACTIVE","s2L14":"3471ad7f"}},{"type":"Feature","geometry":{"type":"Point","coordinates":[120.853562,21.901568]},"properties":{"poiId":"7494f540c64d46d5909aba2d09e2715a.16","title":"台灣最南端","type":"POKESTOP","status":"ACTIVE","s2L14":"3471ad7f"}},{"type":"Feature","geometry":{"type":"Point","coordinates":[120.853721,21.901327]},"properties":{"poiId":"744c4dbcb9783124bfed3a42eeb704d5.16","title":"一等水準點","type":"POWERSPOT","status":"ACTIVE","s2L14":"3471ad7f"}},{"type":"Feature","geometry":{"type":"Point","coordinates":[120.85485,21.900426]},"properties":{"poiId":"9d48270a84484b98aa31bb7a45770f00.16","title":"馬車咖啡","type":"POKESTOP","status":"ACTIVE","s2L14":"3471ad7f"}},{"type":"Feature","geometry":{"type":"Point","coordinates":[120.848629,21.902678]},"properties":{"poiId":"011d2ac66e6a4b26818a14a5f681324f.16","title":"鵝鑾鼻滄海亭","type":"GYM","status":"ACTIVE","s2L14":"3471ad81"}},{"type":"Feature","geometry":{"type":"Point","coordinates":[120.849016,21.902534]},"properties":{"poiId":"fd15ebd763d14ae6868c45ad8f65ef19.16","title":"Sea Pavilion Landmark","type":"POWERSPOT","status":"ACTIVE","s2L14":"3471ad81"}},{"type":"Feature","geometry":{"type":"Point","coordinates":[120.849803,21.90104]},"properties":{"poiId":"0eb8fa57dea5449abbf50bd41432a4c5.16","title":"冤家路","type":"POKESTOP","status":"ACTIVE","s2L14":"3471ad81"}},{"type":"Feature","geometry":{"type":"Point","coordinates":[120.849853,21.901454]},"properties":{"poiId":"97606d6c1d2a4529884a391ffc2c3957.16","title":"迎賓亭","type":"POKESTOP","status":"ACTIVE","s2L14":"3471ad81"}},{"type":"Feature","geometry":{"type":"Point","coordinates":[120.865593,21.901045]},"properties":{"poiId":"8578546bf09a4679bfaf31e301421d9f.16","title":"區位引導圖","type":"POKESTOP","status":"ACTIVE","s2L14":"3471b29d"}},{"type":"Feature","geometry":{"type":"Point","coordinates":[120.738547,21.921694]},"properties":{"poiId":"1ad7c819ad9b35e19e9edcf6f928d29d.16","title":"貓涼亭","type":"POWERSPOT","status":"ACTIVE","s2L14":"3471afdf"}},{"type":"Feature","geometry":{"type":"Point","coordinates":[120.736258,21.921405]},"properties":{"poiId":"939f711df582498f91cc3d9b141b2b1a.16","title":"貓鼻頭垃圾桶","type":"POKESTOP","status":"ACTIVE","s2L14":"3471afdf"}},{"type":"Feature","geometry":{"type":"Point","coordinates":[120.738079,21.92225]},"properties":{"poiId":"b95a2757a12c4e6eadd42be45139baff.16","title":"貓鼻頭－遊客服務中心","type":"POKESTOP","status":"ACTIVE","s2L14":"3471afdf"}},{"type":"Feature","geometry":{"type":"Point","coordinates":[120.739155,21.922045]},"properties":{"poiId":"055e6960b2e44f3bb9379f564afa29cc.16","title":"貓鼻頭 - 現在位置","type":"POKESTOP","status":"ACTIVE","s2L14":"3471afdf"}},{"type":"Feature","geometry":{"type":"Point","coordinates":[120.737545,21.921896]},"properties":{"poiId":"3e31339769d245879f641a5e2d1ca75e.23","title":"貓鼻頭公園","type":"POWERSPOT","status":"INACTIVE","s2L14":"3471afdf"}},{"type":"Feature","geometry":{"type":"Point","coordinates":[120.737899,21.922182]},"properties":{"poiId":"68371399778b3bf6b0f2e3d6cada1cff.16","title":"貓鼻頭牧草卷","type":"POKESTOP","status":"INACTIVE","s2L14":"3471afdf"}},{"type":"Feature","geometry":{"type":"Point","coordinates":[120.735847,21.923229]},"properties":{"poiId":"505cb4d6801d48edad07fe81f0587b43.23","title":"O'glamping 墾丁貓鼻頭露營莊園","type":"POWERSPOT","status":"INACTIVE","s2L14":"3471afdf"}},{"type":"Feature","geometry":{"type":"Point","coordinates":[120.737941,21.922149]},"properties":{"poiId":"4db82ce61e8b4577acc9b2463ba36c9c.16","title":"貓鼻頭公園遊客中心","type":"GYM","status":"ACTIVE","s2L14":"3471afdf"}},{"type":"Feature","geometry":{"type":"Point","coordinates":[120.735773,21.924988]},"properties":{"poiId":"7c9dd68ba3273becb26cd7b7d41f291e.16","title":"歡迎蒞臨水泉社區","type":"POKESTOP","status":"ACTIVE","s2L14":"3471afdf"}},{"type":"Feature","geometry":{"type":"Point","coordinates":[120.737098,21.92206]},"properties":{"poiId":"8a29a265b14c49a68b19c30551593050.16","title":"三等控制點","type":"POKESTOP","status":"ACTIVE","s2L14":"3471afdf"}},{"type":"Feature","geometry":{"type":"Point","coordinates":[120.738377,21.921488]},"properties":{"poiId":"28d7a2aa7a4838b39c978e10546ad95e.16","title":"貓鼻頭圖根點","type":"POKESTOP","status":"ACTIVE","s2L14":"3471afdf"}},{"type":"Feature","geometry":{"type":"Point","coordinates":[120.73888,21.921706]},"properties":{"poiId":"586344e31edd423ab039f20665be1a27.16","title":"貓鼻頭 - 一堆陸客頭","type":"GYM","status":"ACTIVE","s2L14":"3471afdf"}},{"type":"Feature","geometry":{"type":"Point","coordinates":[120.738344,21.922222]},"properties":{"poiId":"a84a97d7100d467084bb827c3d6c1cf2.16","title":"貓鼻頭 - 地圖","type":"POKESTOP","status":"ACTIVE","s2L14":"3471afdf"}},{"type":"Feature","geometry":{"type":"Point","coordinates":[120.737245,21.922389]},"properties":{"poiId":"d97096fa8f4b4c53a0a0018669f389c7.16","title":"貓鼻頭 - 大地圖","type":"POKESTOP","status":"ACTIVE","s2L14":"3471afdf"}},{"type":"Feature","geometry":{"type":"Point","coordinates":[120.735788,21.924687]},"properties":{"poiId":"218671b08039432487dfe8ac4e58d650.16","title":"貓鼻頭公園","type":"POKESTOP","status":"ACTIVE","s2L14":"3471afdf"}},{"type":"Feature","geometry":{"type":"Point","coordinates":[120.841927,21.915914]},"properties":{"poiId":"b737564d0bbb4f51a179de660c78d8ad.23","title":"享．念海灣","type":"POWERSPOT","status":"INACTIVE","s2L14":"3471b265"}},{"type":"Feature","geometry":{"type":"Point","coordinates":[120.843589,21.919694]},"properties":{"poiId":"b0649662c36f498f811a1cd712249598.23","title":"盤古拉墾丁渡假花園民宿","type":"POWERSPOT","status":"ACTIVE","s2L14":"3471b265"}},{"type":"Feature","geometry":{"type":"Point","coordinates":[120.843636,21.918865]},"properties":{"poiId":"831f2bf6e13b34438777ae9dd6f6a6cc.16","title":"盤古拉Summerland","type":"GYM","status":"ACTIVE","s2L14":"3471b265"}},{"type":"Feature","geometry":{"type":"Point","coordinates":[120.843301,21.915939]},"properties":{"poiId":"9d468d35503a33288519a2e6c0688397.16","title":"福德正神","type":"POKESTOP","status":"ACTIVE","s2L14":"3471b265"}},{"type":"Feature","geometry":{"type":"Point","coordinates":[120.842988,21.919869]},"properties":{"poiId":"25f9a87b3863444f8ec539a806ca2190.23","title":"放牛吃草-墾丁草原星空親子民宿/可包棟","type":"POWERSPOT","status":"INACTIVE","s2L14":"3471b265"}},{"type":"Feature","geometry":{"type":"Point","coordinates":[120.841835,21.921087]},"properties":{"poiId":"055ac64ea7894c1faf654944629497fc.23","title":"沃鉐居民宿 The HiddenGem Guesthouse","type":"POWERSPOT","status":"INACTIVE","s2L14":"3471b267"}},{"type":"Feature","geometry":{"type":"Point","coordinates":[120.84413,21.920526]},"properties":{"poiId":"3031ee6f24bf492798ca6382ecbe6e4a.23","title":"墾丁民宿 - 草兒擺擺","type":"POWERSPOT","status":"ACTIVE","s2L14":"3471b267"}},{"type":"Feature","geometry":{"type":"Point","coordinates":[120.843116,21.920998]},"properties":{"poiId":"dfbc906bcd7245439dbd687cba86e976.23","title":"墾丁21.5主題民宿(已歇業)","type":"POWERSPOT","status":"INACTIVE","s2L14":"3471b267"}},{"type":"Feature","geometry":{"type":"Point","coordinates":[120.844544,21.9197]},"properties":{"poiId":"1ba2874df7f84c529a675dc9abc43832.16","title":"洞洞蛋","type":"GYM","status":"ACTIVE","s2L14":"3471b261"}},{"type":"Feature","geometry":{"type":"Point","coordinates":[120.844793,21.92079]},"properties":{"poiId":"6d70807cc13f4953b2ef07567ed64814.23","title":"墾丁Sky Villa","type":"POWERSPOT","status":"INACTIVE","s2L14":"3471b261"}},{"type":"Feature","geometry":{"type":"Point","coordinates":[120.844583,21.920686]},"properties":{"poiId":"7baf7c968abc4950a425bbb3b6298619.16","title":"龍埔宮","type":"POKESTOP","status":"ACTIVE","s2L14":"3471b261"}},{"type":"Feature","geometry":{"type":"Point","coordinates":[120.844545,21.920448]},"properties":{"poiId":"bf3fef3a1e6f386cafa60c304154bf89.16","title":"埔頂龍埔宮五營廟","type":"POWERSPOT","status":"ACTIVE","s2L14":"3471b261"}},{"type":"Feature","geometry":{"type":"Point","coordinates":[120.845142,21.919966]},"properties":{"poiId":"4831c985fbb847be8e2cf6a91a561926.23","title":"雲太美不想下山民宿","type":"POWERSPOT","status":"INACTIVE","s2L14":"3471b261"}},{"type":"Feature","geometry":{"type":"Point","coordinates":[120.845339,21.91864]},"properties":{"poiId":"cf97d47d72a0456d87224c56bf8f13b0.23","title":"墾丁花見小院 l 包棟民宿","type":"POWERSPOT","status":"INACTIVE","s2L14":"3471b263"}},{"type":"Feature","geometry":{"type":"Point","coordinates":[120.845085,21.915431]},"properties":{"poiId":"91ef65bd7463350cbf5ef207e1df1fbc.16","title":"摩艾群石像","type":"POKESTOP","status":"ACTIVE","s2L14":"3471b263"}},{"type":"Feature","geometry":{"type":"Point","coordinates":[120.848094,21.91501]},"properties":{"poiId":"fcb49d1831224083a80fea80e17a6b22.23","title":"青山露營區","type":"POWERSPOT","status":"INACTIVE","s2L14":"3471b263"}},{"type":"Feature","geometry":{"type":"Point","coordinates":[120.847982,21.917609]},"properties":{"poiId":"0b4a6ee4a09e47b69ef620f7e2bf237c.16","title":"荒野福德祠","type":"POKESTOP","status":"ACTIVE","s2L14":"3471b263"}},{"type":"Feature","geometry":{"type":"Point","coordinates":[120.847597,21.914304]},"properties":{"poiId":"7245c9f1dea841278ff49e8e3ea4bafe.23","title":"木棉花海邊小屋","type":"POWERSPOT","status":"INACTIVE","s2L14":"3471b263"}},{"type":"Feature","geometry":{"type":"Point","coordinates":[120.847529,21.917649]},"properties":{"poiId":"ad5ddad6c0ac41b99254bb1085bbb918.23","title":"日光．嶼南Sunlight on the peninsula","type":"POWERSPOT","status":"INACTIVE","s2L14":"3471b263"}},{"type":"Feature","geometry":{"type":"Point","coordinates":[120.847821,21.913838]},"properties":{"poiId":"298a90a7fbca479f876ed0cec751edf9.16","title":"El Puerto","type":"GYM","status":"ACTIVE","s2L14":"3471b263"}},{"type":"Feature","geometry":{"type":"Point","coordinates":[120.848075,21.914078]},"properties":{"poiId":"88adc948a5a3377eaf325d39724f0684.16","title":"大黃蜂雕塑","type":"POWERSPOT","status":"ACTIVE","s2L14":"3471b263"}},{"type":"Feature","geometry":{"type":"Point","coordinates":[120.847699,21.913069]},"properties":{"poiId":"ef24c314abf04cd88e1885727aed196b.16","title":"砂島貝殼砂展示館 Shadau Shell Sand Display Museum","type":"POKESTOP","status":"ACTIVE","s2L14":"3471b27d"}},{"type":"Feature","geometry":{"type":"Point","coordinates":[120.84788,21.913283]},"properties":{"poiId":"7e4be377e91e34dc9897fc2192da5534.16","title":"聞花香的貓壁畫","type":"POKESTOP","status":"ACTIVE","s2L14":"3471b27d"}},{"type":"Feature","geometry":{"type":"Point","coordinates":[120.84808,21.91259]},"properties":{"poiId":"fd1f60e96fae484d95dafaebaabea4b6.23","title":"珊瑚島","type":"POWERSPOT","status":"ACTIVE","s2L14":"3471b27d"}},{"type":"Feature","geometry":{"type":"Point","coordinates":[120.847704,21.912426]},"properties":{"poiId":"64ca54684c453b79a5b8c5b882bdc4fe.16","title":"砂島資訊看板","type":"POKESTOP","status":"ACTIVE","s2L14":"3471b27d"}},{"type":"Feature","geometry":{"type":"Point","coordinates":[120.847818,21.912798]},"properties":{"poiId":"04fd9f8cc7d64338aa13b0acf710fb14.16","title":"砂島","type":"GYM","status":"ACTIVE","s2L14":"3471b27d"}},{"type":"Feature","geometry":{"type":"Point","coordinates":[120.848014,21.913526]},"properties":{"poiId":"ac1443b0bfb84a55b56a202da59de3cd.23","title":"墾丁泊途會館 El Puerto Hotel","type":"POWERSPOT","status":"INACTIVE","s2L14":"3471b27d"}},{"type":"Feature","geometry":{"type":"Point","coordinates":[120.848717,21.910644]},"properties":{"poiId":"b58af0f6790447ea8db216c34cb0b4f8.23","title":"墾，點心｜Kenting Dessert","type":"POWERSPOT","status":"INACTIVE","s2L14":"3471b27d"}},{"type":"Feature","geometry":{"type":"Point","coordinates":[120.847542,21.913297]},"properties":{"poiId":"22d9980264a14e7c89fdba37a7627b7b.16","title":"砂島遠眺台","type":"POWERSPOT","status":"INACTIVE","s2L14":"3471b27d"}},{"type":"Feature","geometry":{"type":"Point","coordinates":[120.848112,21.904898]},"properties":{"poiId":"86294ad55b26479ea927cb1c52ed22c6.16","title":"港灣","type":"POKESTOP","status":"ACTIVE","s2L14":"3471b27f"}},{"type":"Feature","geometry":{"type":"Point","coordinates":[120.848776,21.905258]},"properties":{"poiId":"ca0725b0a5f14f5dbd38b1ef4b9e19b7.16","title":"有求必應","type":"POWERSPOT","status":"INACTIVE","s2L14":"3471b27f"}},{"type":"Feature","geometry":{"type":"Point","coordinates":[120.849471,21.903102]},"properties":{"poiId":"df495dcce3d147e78c4ba384d7a990ff.16","title":"指示牌","type":"POKESTOP","status":"ACTIVE","s2L14":"3471b27f"}},{"type":"Feature","geometry":{"type":"Point","coordinates":[120.849028,21.905126]},"properties":{"poiId":"4120c24ebd6f45e693af5a97c2b99a75.16","title":"這隻石獅頭很平","type":"GYM","status":"ACTIVE","s2L14":"3471b27f"}},{"type":"Feature","geometry":{"type":"Point","coordinates":[120.848396,21.904685]},"properties":{"poiId":"e375c9b871f94a619a4dd7aa4e2b1574.16","title":"鼻頭漁港 海堤壁畫","type":"POKESTOP","status":"ACTIVE","s2L14":"3471b27f"}},{"type":"Feature","geometry":{"type":"Point","coordinates":[120.849539,21.907098]},"properties":{"poiId":"7f8c14ec99db307d90312895a317a3ac.16","title":"彩繪浮球","type":"POKESTOP","status":"ACTIVE","s2L14":"3471b27f"}},{"type":"Feature","geometry":{"type":"Point","coordinates":[120.851261,21.903806]},"properties":{"poiId":"ea388cc053fa4f7eb36c1676f685d3d5.16","title":"墾丁 保安宮 金爐","type":"POKESTOP","status":"ACTIVE","s2L14":"3471b281"}},{"type":"Feature","geometry":{"type":"Point","coordinates":[120.853257,21.903999]},"properties":{"poiId":"2cb4a1a18437348e8fcef25f58323130.16","title":"南無阿彌陀佛","type":"POKESTOP","status":"ACTIVE","s2L14":"3471b281"}},{"type":"Feature","geometry":{"type":"Point","coordinates":[120.851249,21.902669]},"properties":{"poiId":"a85a731bf98d467e9b6c75f788992c6d.16","title":"在台灣最南端談天","type":"POKESTOP","status":"ACTIVE","s2L14":"3471b281"}},{"type":"Feature","geometry":{"type":"Point","coordinates":[120.852317,21.904439]},"properties":{"poiId":"6eb517d3c6d43a468de30e1dbd8cdd50.16","title":"鵝鑾鼻玉旨聖鑾宮","type":"POKESTOP","status":"ACTIVE","s2L14":"3471b281"}},{"type":"Feature","geometry":{"type":"Point","coordinates":[120.850838,21.903599]},"properties":{"poiId":"96f1a2625adb3a67988c6db575612b2b.16","title":"鵝鑾鼻公園休憩區","type":"POKESTOP","status":"ACTIVE","s2L14":"3471b281"}},{"type":"Feature","geometry":{"type":"Point","coordinates":[120.852271,21.903432]},"properties":{"poiId":"1f47a7fa7de6308aa330121eba368238.16","title":"鵝鑾鼻玉旨南天宮","type":"POKESTOP","status":"ACTIVE","s2L14":"3471b281"}},{"type":"Feature","geometry":{"type":"Point","coordinates":[120.85277,21.901931]},"properties":{"poiId":"8ba7f16ab7b5392f84d92935b3a95cfa.16","title":"鵝鑾鼻燈塔休憩區","type":"POKESTOP","status":"ACTIVE","s2L14":"3471b281"}},{"type":"Feature","geometry":{"type":"Point","coordinates":[120.85211,21.902083]},"properties":{"poiId":"cb4f006360fd3fa59837bc01a378beae.16","title":"一條連結世界的鋼索 - 迴生","type":"POWERSPOT","status":"INACTIVE","s2L14":"3471b281"}},{"type":"Feature","geometry":{"type":"Point","coordinates":[120.851284,21.903464]},"properties":{"poiId":"dbc7603cbbe733c1b35c90018acbd2dd.16","title":"鵝鑾鼻公園 - 木麻黃植物解說牌","type":"POKESTOP","status":"ACTIVE","s2L14":"3471b281"}},{"type":"Feature","geometry":{"type":"Point","coordinates":[120.850339,21.90431]},"properties":{"poiId":"f79ec6432c7831bb89d44a604f0a8d13.16","title":"鵝鑾鼻荷蘭八英雄","type":"POKESTOP","status":"ACTIVE","s2L14":"3471b281"}},{"type":"Feature","geometry":{"type":"Point","coordinates":[120.852092,21.905981]},"properties":{"poiId":"e81af2617d774e5d8d893ebf6f85cbae.16","title":"Open","type":"POKESTOP","status":"ACTIVE","s2L14":"3471b281"}},{"type":"Feature","geometry":{"type":"Point","coordinates":[120.851899,21.905033]},"properties":{"poiId":"c07cc13f8a3a44d8b3b56964098289eb.16","title":"鵝鑾鼻","type":"POKESTOP","status":"ACTIVE","s2L14":"3471b281"}},{"type":"Feature","geometry":{"type":"Point","coordinates":[120.853589,21.903129]},"properties":{"poiId":"b91014b4bc0a458ca643cc9331c7ff7a.16","title":"龍坑生態保護區","type":"POKESTOP","status":"ACTIVE","s2L14":"3471b281"}},{"type":"Feature","geometry":{"type":"Point","coordinates":[120.851464,21.905237]},"properties":{"poiId":"637631e07a21320f82e138c62fd11aa1.16","title":"鵝鑾鼻公園立牌","type":"POWERSPOT","status":"INACTIVE","s2L14":"3471b281"}},{"type":"Feature","geometry":{"type":"Point","coordinates":[120.851926,21.904803]},"properties":{"poiId":"9127310722a947aebfbabfdfef5359b8.23","title":"南岬咖啡店 South Cape Café","type":"POWERSPOT","status":"INACTIVE","s2L14":"3471b281"}},{"type":"Feature","geometry":{"type":"Point","coordinates":[120.851696,21.902146]},"properties":{"poiId":"40b88a5d069f376ea183dd09181daa39.16","title":"無限智Unlimited Wisdom","type":"POKESTOP","status":"ACTIVE","s2L14":"3471b281"}},{"type":"Feature","geometry":{"type":"Point","coordinates":[120.851398,21.903973]},"properties":{"poiId":"7f4f87be2f06409490972c810d7abec8.16","title":"保安宮","type":"GYM","status":"ACTIVE","s2L14":"3471b281"}},{"type":"Feature","geometry":{"type":"Point","coordinates":[120.850713,21.903925]},"properties":{"poiId":"c272613de0964000a6d755eb8fb954ee.16","title":"鵝鑾鼻公園碑","type":"GYM","status":"ACTIVE","s2L14":"3471b281"}},{"type":"Feature","geometry":{"type":"Point","coordinates":[120.850757,21.904277]},"properties":{"poiId":"a3bad43adf2f4eaebc28f4a97329ae35.16","title":"鵝鑾鼻公園","type":"POWERSPOT","status":"ACTIVE","s2L14":"3471b281"}},{"type":"Feature","geometry":{"type":"Point","coordinates":[120.852612,21.902223]},"properties":{"poiId":"61bbd1fab2524c4da8492158eb762e95.16","title":"鵝鑾鼻燈塔","type":"GYM","status":"ACTIVE","s2L14":"3471b281"}},{"type":"Feature","geometry":{"type":"Point","coordinates":[120.850935,21.905806]},"properties":{"poiId":"2dc680df941c4dd9a66a9ef8cc2dea81.16","title":"統一渡假村","type":"POKESTOP","status":"ACTIVE","s2L14":"3471b281"}},{"type":"Feature","geometry":{"type":"Point","coordinates":[120.850333,21.905872]},"properties":{"poiId":"2a3456a0a86e4f6a8000fa494fca2cf9.16","title":"梅花四胞胎變電箱","type":"POKESTOP","status":"ACTIVE","s2L14":"3471b281"}},{"type":"Feature","geometry":{"type":"Point","coordinates":[120.852638,21.904449]},"properties":{"poiId":"1a314b6fe9d14ccd9c9d8f9ee0325fb3.23","title":"家La Maison B&B 歐風海景民宿","type":"POWERSPOT","status":"INACTIVE","s2L14":"3471b281"}},{"type":"Feature","geometry":{"type":"Point","coordinates":[120.851593,21.906166]},"properties":{"poiId":"6a50e63181c241e58a7869550afe0075.16","title":"黑石","type":"POKESTOP","status":"ACTIVE","s2L14":"3471b281"}},{"type":"Feature","geometry":{"type":"Point","coordinates":[120.852247,21.904845]},"properties":{"poiId":"0ca0ded5d030349192c5e5b2f00ad8c1.16","title":"鵝鑾鼻社區樂活中心","type":"POKESTOP","status":"ACTIVE","s2L14":"3471b281"}},{"type":"Feature","geometry":{"type":"Point","coordinates":[120.855815,21.9028]},"properties":{"poiId":"eb206de429484a2a9886e42387cff4db.16","title":"龍坑管制站","type":"POKESTOP","status":"ACTIVE","s2L14":"3471b283"}},{"type":"Feature","geometry":{"type":"Point","coordinates":[120.854831,21.913413]},"properties":{"poiId":"b51188a745ba46739788d0283b0ee443.16","title":"恆春風吹沙福安宮","type":"POKESTOP","status":"ACTIVE","s2L14":"3471b289"}},{"type":"Feature","geometry":{"type":"Point","coordinates":[120.853618,21.917508]},"properties":{"poiId":"975c97c82f5e4a90ae77cfd93ef66c65.16","title":"龍磐燈塔","type":"GYM","status":"ACTIVE","s2L14":"3471b289"}},{"type":"Feature","geometry":{"type":"Point","coordinates":[120.85414,21.91726]},"properties":{"poiId":"1876db000c78427f9a919559d55c8520.23","title":"墾丁-日初很近包棟民宿 Sunrise Us Villa","type":"POWERSPOT","status":"INACTIVE","s2L14":"3471b289"}},{"type":"Feature","geometry":{"type":"Point","coordinates":[120.854039,21.915574]},"properties":{"poiId":"bcc9a50596df3efdbbd06c5024899931.16","title":"小白屋的羊","type":"POKESTOP","status":"ACTIVE","s2L14":"3471b289"}},{"type":"Feature","geometry":{"type":"Point","coordinates":[120.854103,21.916566]},"properties":{"poiId":"e41d6bf84c8048e0b7ca95393ded5713.23","title":"墾丁捻花民宿 （電話）  0975-256178","type":"POWERSPOT","status":"INACTIVE","s2L14":"3471b289"}},{"type":"Feature","geometry":{"type":"Point","coordinates":[120.851174,21.917647]},"properties":{"poiId":"85047903bb7a460896e8bb277dcb359d.23","title":"東邊海風ilvento icecream","type":"POWERSPOT","status":"INACTIVE","s2L14":"3471b289"}},{"type":"Feature","geometry":{"type":"Point","coordinates":[120.854762,21.916872]},"properties":{"poiId":"100b63b53ee4401d8c7c8217c2702114.23","title":"沛朵廚坊","type":"POWERSPOT","status":"ACTIVE","s2L14":"3471b289"}},{"type":"Feature","geometry":{"type":"Point","coordinates":[120.850166,21.918577]},"properties":{"poiId":"a56402e4096c4bb5a5221a007636c506.16","title":"聯勤招牌","type":"POKESTOP","status":"ACTIVE","s2L14":"3471b28b"}},{"type":"Feature","geometry":{"type":"Point","coordinates":[120.852528,21.920966]},"properties":{"poiId":"e0edf7e105064ecfb77b3748a257e853.16","title":"墾丁氣象台","type":"GYM","status":"ACTIVE","s2L14":"3471b28b"}},{"type":"Feature","geometry":{"type":"Point","coordinates":[120.8529,21.920671]},"properties":{"poiId":"6385977539a645eb804b288853299fe3.16","title":"舊聯勤看板","type":"POKESTOP","status":"ACTIVE","s2L14":"3471b28b"}},{"type":"Feature","geometry":{"type":"Point","coordinates":[120.851361,21.918315]},"properties":{"poiId":"fa9d0394b84843cb9b6d83c1f4a0ec74.16","title":"魔法石柱","type":"POKESTOP","status":"ACTIVE","s2L14":"3471b28b"}},{"type":"Feature","geometry":{"type":"Point","coordinates":[120.721131,21.93241]},"properties":{"poiId":"58ab3cc1d54c346c87cbd76b2a1d43b9.16","title":"白沙路道路及排水溝改善工程紀念碑","type":"POKESTOP","status":"ACTIVE","s2L14":"3471b003"}},{"type":"Feature","geometry":{"type":"Point","coordinates":[120.720237,21.933062]},"properties":{"poiId":"c51595962d464ab89b3ee9e83341f934.16","title":"壁畫","type":"GYM","status":"ACTIVE","s2L14":"3471b003"}},{"type":"Feature","geometry":{"type":"Point","coordinates":[120.721358,21.932155]},"properties":{"poiId":"d9031802d283472a8076867bb07355cf.16","title":"古山宮牌樓","type":"GYM","status":"INACTIVE","s2L14":"3471b003"}},{"type":"Feature","geometry":{"type":"Point","coordinates":[120.722181,21.929048]},"properties":{"poiId":"b29d66f96b7e3ffeb812a018a4d92f42.16","title":"T289號三等控制點","type":"POKESTOP","status":"ACTIVE","s2L14":"3471b003"}},{"type":"Feature","geometry":{"type":"Point","coordinates":[120.719955,21.933125]},"properties":{"poiId":"38b8cda29c77473ca6d85546f5024873.16","title":"水仙宮","type":"POWERSPOT","status":"INACTIVE","s2L14":"3471b003"}},{"type":"Feature","geometry":{"type":"Point","coordinates":[120.721419,21.932312]},"properties":{"poiId":"034b5fe4521538cf9efce70b8ee1f62e.16","title":"地藏王菩薩土地公","type":"POKESTOP","status":"ACTIVE","s2L14":"3471b003"}},{"type":"Feature","geometry":{"type":"Point","coordinates":[120.722897,21.933821]},"properties":{"poiId":"0f0012af8265401a83f0ce4858701974.23","title":"森食堂-新台菜海鮮料理","type":"POWERSPOT","status":"ACTIVE","s2L14":"3471b003"}},{"type":"Feature","geometry":{"type":"Point","coordinates":[120.720924,21.933247]},"properties":{"poiId":"8caa75baad7831f5bf7929a23518f9fb.16","title":"白沙灣海灘告示牌","type":"POKESTOP","status":"ACTIVE","s2L14":"3471b003"}},{"type":"Feature","geometry":{"type":"Point","coordinates":[120.723242,21.934117]},"properties":{"poiId":"7497ce5acc433deaaec6d484bfea22a7.16","title":"國境之南的海鳥","type":"POKESTOP","status":"ACTIVE","s2L14":"3471b005"}},{"type":"Feature","geometry":{"type":"Point","coordinates":[120.717959,21.93704]},"properties":{"poiId":"45a8e1cbf5eb471ea54bbec1f9fbfc14.23","title":"阿娥的越南美食&白沙民宿","type":"POWERSPOT","status":"INACTIVE","s2L14":"3471b005"}},{"type":"Feature","geometry":{"type":"Point","coordinates":[120.718032,21.936528]},"properties":{"poiId":"731ae6ec21c936e4991591c22a89fcef.16","title":"白砂天巡宮","type":"POKESTOP","status":"ACTIVE","s2L14":"3471b005"}},{"type":"Feature","geometry":{"type":"Point","coordinates":[120.720689,21.935115]},"properties":{"poiId":"07cb532e35ac46e5aa56bb8a4a2efbc7.23","title":"墾丁-樂夏.天晴民宿","type":"POWERSPOT","status":"INACTIVE","s2L14":"3471b005"}},{"type":"Feature","geometry":{"type":"Point","coordinates":[120.719041,21.935779]},"properties":{"poiId":"fe03b11bab1642e1bae3d5123d2d3ae3.16","title":"白沙灣海灘","type":"GYM","status":"ACTIVE","s2L14":"3471b005"}},{"type":"Feature","geometry":{"type":"Point","coordinates":[120.719424,21.936313]},"properties":{"poiId":"d0b8239eff4540ecb11e232072b75bf9.23","title":"凱賀民宿Kai.Her-墾丁白沙","type":"POWERSPOT","status":"ACTIVE","s2L14":"3471b005"}},{"type":"Feature","geometry":{"type":"Point","coordinates":[120.717108,21.935366]},"properties":{"poiId":"4b5a0c55413a4f4abe7be115caf8b864.16","title":"墾丁白沙灣 地圖指示牌","type":"POWERSPOT","status":"INACTIVE","s2L14":"3471b007"}},{"type":"Feature","geometry":{"type":"Point","coordinates":[120.717488,21.93673]},"properties":{"poiId":"11b4fc129f653c6e99662ec055a76e06.16","title":"白砂玉旨慈雲宮","type":"POWERSPOT","status":"ACTIVE","s2L14":"3471b007"}},{"type":"Feature","geometry":{"type":"Point","coordinates":[120.716388,21.93586]},"properties":{"poiId":"6ab76db7a5364a5bb54b08ba6a462f8f.23","title":"墾丁白沙灣永健水上育樂中心","type":"POWERSPOT","status":"INACTIVE","s2L14":"3471b007"}},{"type":"Feature","geometry":{"type":"Point","coordinates":[120.717203,21.936543]},"properties":{"poiId":"4e10623ba07b34f6bcdb29813d545765.16","title":"白沙解說牌","type":"POKESTOP","status":"ACTIVE","s2L14":"3471b007"}},{"type":"Feature","geometry":{"type":"Point","coordinates":[120.717371,21.935659]},"properties":{"poiId":"bac3ce047d4949acaaef10a173c1f82c.16","title":"白沙村壁畫","type":"GYM","status":"ACTIVE","s2L14":"3471b007"}},{"type":"Feature","geometry":{"type":"Point","coordinates":[120.717404,21.936542]},"properties":{"poiId":"8b73ef645d4742ff897aebcb605623f4.16","title":"墾丁 白沙灣 白衝浪板 公車亭","type":"POKESTOP","status":"ACTIVE","s2L14":"3471b007"}},{"type":"Feature","geometry":{"type":"Point","coordinates":[120.716006,21.936639]},"properties":{"poiId":"28645f907b1848adbd66f431a595e9ba.16","title":"Panda Statu at the Entrance of Baishawan","type":"GYM","status":"ACTIVE","s2L14":"3471b007"}},{"type":"Feature","geometry":{"type":"Point","coordinates":[120.715172,21.937273]},"properties":{"poiId":"b9a8e0c00b1f40eba601814ca9f8312d.23","title":"墾丁民宿 小白砂Shark B&B","type":"POWERSPOT","status":"INACTIVE","s2L14":"3471b007"}},{"type":"Feature","geometry":{"type":"Point","coordinates":[120.715865,21.936614]},"properties":{"poiId":"fc117d2618314058816a28315257db28.16","title":"Tiger","type":"POKESTOP","status":"ACTIVE","s2L14":"3471b007"}},{"type":"Feature","geometry":{"type":"Point","coordinates":[120.717365,21.937048]},"properties":{"poiId":"8ade50f79afd41f591148d8e1335cb87.16","title":"墾丁白沙灣 金聖宮","type":"POKESTOP","status":"ACTIVE","s2L14":"3471b007"}},{"type":"Feature","geometry":{"type":"Point","coordinates":[120.716335,21.935456]},"properties":{"poiId":"811326d63843315499429fd7bcdfaff5.16","title":"跟著熊貓衝浪去啦","type":"POKESTOP","status":"ACTIVE","s2L14":"3471b007"}},{"type":"Feature","geometry":{"type":"Point","coordinates":[120.715369,21.9361]},"properties":{"poiId":"404d8108ab704ebfaa8a43140743acb6.23","title":"白沙31民宿","type":"POWERSPOT","status":"INACTIVE","s2L14":"3471b007"}},{"type":"Feature","geometry":{"type":"Point","coordinates":[120.717446,21.936343]},"properties":{"poiId":"8249f32fef4e4955b9c8f78433cd266a.23","title":"漁人海產店","type":"POWERSPOT","status":"INACTIVE","s2L14":"3471b007"}},{"type":"Feature","geometry":{"type":"Point","coordinates":[120.716947,21.936628]},"properties":{"poiId":"a881b62bb6c34fe1bc714d52fce2067b.16","title":"白沙生活會館","type":"POKESTOP","status":"ACTIVE","s2L14":"3471b007"}},{"type":"Feature","geometry":{"type":"Point","coordinates":[120.720817,21.943374]},"properties":{"poiId":"4a6b6efa05de4565b1d0c0cc7f35a395.16","title":"地安宮","type":"POKESTOP","status":"ACTIVE","s2L14":"3471b00f"}},{"type":"Feature","geometry":{"type":"Point","coordinates":[120.732933,21.92212]},"properties":{"poiId":"7c31cae92d873dc093d933f651265a06.16","title":"檳榔坑石頭公與土地公","type":"POKESTOP","status":"ACTIVE","s2L14":"3471afe1"}},{"type":"Feature","geometry":{"type":"Point","coordinates":[120.724511,21.925935]},"properties":{"poiId":"8b378d9960043b3fab5d88714fa5683d.16","title":"白沙路壁畫","type":"GYM","status":"ACTIVE","s2L14":"3471afe3"}},{"type":"Feature","geometry":{"type":"Point","coordinates":[120.725979,21.92385]},"properties":{"poiId":"798216a941af3674b93f2f716e57d2a1.16","title":"古山宮-大金爐","type":"POKESTOP","status":"ACTIVE","s2L14":"3471afe3"}},{"type":"Feature","geometry":{"type":"Point","coordinates":[120.726002,21.924158]},"properties":{"poiId":"907228b55d994e139cff140728064401.16","title":"古山宮","type":"POKESTOP","status":"ACTIVE","s2L14":"3471afe3"}},{"type":"Feature","geometry":{"type":"Point","coordinates":[120.729143,21.941278]},"properties":{"poiId":"eb3edb99d6ec3d368ee6dd2f52ef7fdf.16","title":"水泉慈聖宮媽祖廟","type":"POKESTOP","status":"ACTIVE","s2L14":"3471b011"}},{"type":"Feature","geometry":{"type":"Point","coordinates":[120.73141,21.938336]},"properties":{"poiId":"bf79f2e8318f4d7eaff56a584a733cfa.16","title":"水泉 石頭公廟","type":"GYM","status":"ACTIVE","s2L14":"3471b017"}},{"type":"Feature","geometry":{"type":"Point","coordinates":[120.72963,21.938524]},"properties":{"poiId":"bdb17ec9c1b13116b79b8c291835d403.16","title":"上水泉華山寺金爐","type":"POKESTOP","status":"ACTIVE","s2L14":"3471b017"}},{"type":"Feature","geometry":{"type":"Point","coordinates":[120.729919,21.939199]},"properties":{"poiId":"01e3c3b229a0478990c21d24d486a9b8.16","title":"蓮花","type":"POKESTOP","status":"ACTIVE","s2L14":"3471b017"}},{"type":"Feature","geometry":{"type":"Point","coordinates":[120.732073,21.939336]},"properties":{"poiId":"cd56af6703b43e5fb9e3eacd1e4566c2.16","title":"燈塔、風車、熱氣球","type":"POKESTOP","status":"ACTIVE","s2L14":"3471b017"}},{"type":"Feature","geometry":{"type":"Point","coordinates":[120.73017,21.939928]},"properties":{"poiId":"f6439ddd934f3fcf8cb7d046034044c4.16","title":"華山寺入口石勒","type":"POKESTOP","status":"ACTIVE","s2L14":"3471b017"}},{"type":"Feature","geometry":{"type":"Point","coordinates":[120.729496,21.938169]},"properties":{"poiId":"630930ebb42135b3b6f00c9f7e96c1a7.16","title":"華山寺扭腰器","type":"POWERSPOT","status":"ACTIVE","s2L14":"3471b017"}},{"type":"Feature","geometry":{"type":"Point","coordinates":[120.730261,21.939721]},"properties":{"poiId":"8e82ee3b8c944befbf095db9df64f81b.16","title":"華山寺牌樓","type":"GYM","status":"ACTIVE","s2L14":"3471b017"}},{"type":"Feature","geometry":{"type":"Point","coordinates":[120.729557,21.938718]},"properties":{"poiId":"63a0d39d31fc48fdbe34fb30caef783a.16","title":"華山寺","type":"POKESTOP","status":"INACTIVE","s2L14":"3471b017"}},{"type":"Feature","geometry":{"type":"Point","coordinates":[120.733812,21.937804]},"properties":{"poiId":"5cef01053daf30abaf423cdae4a11fa3.16","title":"上水泉榕樹公","type":"POKESTOP","status":"ACTIVE","s2L14":"3471b017"}},{"type":"Feature","geometry":{"type":"Point","coordinates":[120.731214,21.939748]},"properties":{"poiId":"7e71c7c4ae9e4668853a67b483c263b1.16","title":"三玄宮","type":"POKESTOP","status":"ACTIVE","s2L14":"3471b017"}},{"type":"Feature","geometry":{"type":"Point","coordinates":[120.730529,21.935258]},"properties":{"poiId":"25f4a80d7a0e4a09863b142b8cf0351e.23","title":"頂水泉盆栽園藝","type":"POWERSPOT","status":"INACTIVE","s2L14":"3471b019"}},{"type":"Feature","geometry":{"type":"Point","coordinates":[120.731102,21.933246]},"properties":{"poiId":"af3d33f1d83648338ea007b5bca1a400.16","title":"下水泉北營大將軍","type":"POKESTOP","status":"ACTIVE","s2L14":"3471b019"}},{"type":"Feature","geometry":{"type":"Point","coordinates":[120.734779,21.936937]},"properties":{"poiId":"f64df7c302c1415eb211ff58bb261ede.23","title":"波光星海旅宿 The Wave Inn","type":"POWERSPOT","status":"INACTIVE","s2L14":"3471b019"}},{"type":"Feature","geometry":{"type":"Point","coordinates":[120.73272,21.932988]},"properties":{"poiId":"d35b142370a8442e80afea398ecf1a65.16","title":"迎賓笑彌勒","type":"POKESTOP","status":"ACTIVE","s2L14":"3471b019"}},{"type":"Feature","geometry":{"type":"Point","coordinates":[120.731025,21.93262]},"properties":{"poiId":"e316f9bf384740cd81000c77e9b2ad86.16","title":"泉南宮牌坊","type":"GYM","status":"ACTIVE","s2L14":"3471b019"}},{"type":"Feature","geometry":{"type":"Point","coordinates":[120.733214,21.932625]},"properties":{"poiId":"e1e2a6daa040348da9e4f0a3cf22fd5a.16","title":"路邊小廟","type":"POKESTOP","status":"ACTIVE","s2L14":"3471b019"}},{"type":"Feature","geometry":{"type":"Point","coordinates":[120.732694,21.933487]},"properties":{"poiId":"ad882dd269d03a74b9fd45d2012a7641.16","title":"霯霐霞泰山石敢當","type":"POKESTOP","status":"ACTIVE","s2L14":"3471b019"}},{"type":"Feature","geometry":{"type":"Point","coordinates":[120.734193,21.936508]},"properties":{"poiId":"534d827a63de449491d651ea09364a80.23","title":"光合樂潛水度假中心","type":"POWERSPOT","status":"INACTIVE","s2L14":"3471b019"}},{"type":"Feature","geometry":{"type":"Point","coordinates":[120.732404,21.933197]},"properties":{"poiId":"de78c4a45bc03f23b7d79c3ea9e6ab4f.16","title":"下水泉明明大宏寺","type":"POWERSPOT","status":"INACTIVE","s2L14":"3471b019"}},{"type":"Feature","geometry":{"type":"Point","coordinates":[120.73157,21.934992]},"properties":{"poiId":"201c32b7cc5e35f9814f0c5c3c6bdb49.16","title":"上水泉南營大將軍","type":"POWERSPOT","status":"INACTIVE","s2L14":"3471b019"}},{"type":"Feature","geometry":{"type":"Point","coordinates":[120.729568,21.937915]},"properties":{"poiId":"5fd500c803924e85876c14695f48825d.16","title":"籃球場","type":"POKESTOP","status":"ACTIVE","s2L14":"3471b019"}},{"type":"Feature","geometry":{"type":"Point","coordinates":[120.733025,21.93363]},"properties":{"poiId":"595398138bc6347a95b3c37183a86ee8.16","title":"下水泉山神地靈","type":"POKESTOP","status":"ACTIVE","s2L14":"3471b019"}},{"type":"Feature","geometry":{"type":"Point","coordinates":[120.732354,21.932727]},"properties":{"poiId":"b4fd9a0579a4382093c636002c43f72f.16","title":"明明大宏寺地藏殿","type":"POWERSPOT","status":"INACTIVE","s2L14":"3471b019"}},{"type":"Feature","geometry":{"type":"Point","coordinates":[120.733952,21.934904]},"properties":{"poiId":"64bdf237dfb2477fa2fe200230b25513.23","title":"歐都上特色民宿","type":"POWERSPOT","status":"INACTIVE","s2L14":"3471b019"}},{"type":"Feature","geometry":{"type":"Point","coordinates":[120.731659,21.935414]},"properties":{"poiId":"4de9dc74dfa940548531ab64d17c37b2.16","title":"水泉里社區活動中心","type":"GYM","status":"ACTIVE","s2L14":"3471b019"}},{"type":"Feature","geometry":{"type":"Point","coordinates":[120.732977,21.936461]},"properties":{"poiId":"8362d824e76741d28d08bf3594e5061b.23","title":"林房民宿","type":"POWERSPOT","status":"ACTIVE","s2L14":"3471b019"}},{"type":"Feature","geometry":{"type":"Point","coordinates":[120.732435,21.932213]},"properties":{"poiId":"e3e4ce51abb84153869cab52cc8756e6.16","title":"朱南宮","type":"POKESTOP","status":"ACTIVE","s2L14":"3471b019"}},{"type":"Feature","geometry":{"type":"Point","coordinates":[120.732539,21.936718]},"properties":{"poiId":"da7bb01ce63242a5b191a51f57886da6.23","title":"uD835uDE4FuD835uDC93uD835uDE56̣uD835uDC8FuD835uDE5C uD835uDE49uD835uDC88uD835uDE6AuD835uDC9AuD835uDE5ÂuD835uDC8F uD835uDC75uD835uDE5DuD835uDC8Á","type":"POWERSPOT","status":"INACTIVE","s2L14":"3471b019"}},{"type":"Feature","geometry":{"type":"Point","coordinates":[120.726531,21.933374]},"properties":{"poiId":"f2687185985e44759b73e7bc04252dfd.23","title":"玹玹映月","type":"POWERSPOT","status":"ACTIVE","s2L14":"3471b01b"}},{"type":"Feature","geometry":{"type":"Point","coordinates":[120.726926,21.932883]},"properties":{"poiId":"381f248a80ee3edea7ec8d4553880e0f.16","title":"嵐翎·白砂","type":"POKESTOP","status":"ACTIVE","s2L14":"3471b01d"}},{"type":"Feature","geometry":{"type":"Point","coordinates":[120.73098,21.93235]},"properties":{"poiId":"0cfc70edf5e6423985910a36e32d1d5d.23","title":"嵐翎白砂渡假莊園 SkyeBay Club","type":"POWERSPOT","status":"ACTIVE","s2L14":"3471b01f"}},{"type":"Feature","geometry":{"type":"Point","coordinates":[120.733452,21.930223]},"properties":{"poiId":"9bde07f9248a4972ad026202468b3614.16","title":"萬安宮","type":"POKESTOP","status":"ACTIVE","s2L14":"3471b01f"}},{"type":"Feature","geometry":{"type":"Point","coordinates":[120.731049,21.931965]},"properties":{"poiId":"89abf661dbd739b7822d7228a9de6556.16","title":"悠游的海豚母子","type":"POKESTOP","status":"ACTIVE","s2L14":"3471b01f"}},{"type":"Feature","geometry":{"type":"Point","coordinates":[120.734231,21.928475]},"properties":{"poiId":"f2bc293534a34d9f936a49d7658e25b0.23","title":"《小屋貓鼻頭》Small House Maobitou","type":"POWERSPOT","status":"INACTIVE","s2L14":"3471b01f"}},{"type":"Feature","geometry":{"type":"Point","coordinates":[120.734236,21.92871]},"properties":{"poiId":"45411a3f349639eaa1c066833a9a0e3b.16","title":"月光兔","type":"POKESTOP","status":"ACTIVE","s2L14":"3471b01f"}},{"type":"Feature","geometry":{"type":"Point","coordinates":[120.73098,21.93156]},"properties":{"poiId":"cad7b29472214a6c9d9864f8641bf061.23","title":"水泉19N","type":"POWERSPOT","status":"INACTIVE","s2L14":"3471b01f"}},{"type":"Feature","geometry":{"type":"Point","coordinates":[120.73203,21.928808]},"properties":{"poiId":"3c9eb222e7b24fb19ff275d27fa9aafa.16","title":"泉南宮","type":"GYM","status":"ACTIVE","s2L14":"3471b01f"}},{"type":"Feature","geometry":{"type":"Point","coordinates":[120.731988,21.927506]},"properties":{"poiId":"8aec95c16eac3993b4d3675386d11210.16","title":"海豚在跳舞","type":"POWERSPOT","status":"INACTIVE","s2L14":"3471b01f"}},{"type":"Feature","geometry":{"type":"Point","coordinates":[120.73156,21.927597]},"properties":{"poiId":"7df9a9826e814fc3992b03d99785f20e.16","title":"盤天宮","type":"POKESTOP","status":"ACTIVE","s2L14":"3471b01f"}},{"type":"Feature","geometry":{"type":"Point","coordinates":[120.734392,21.927211]},"properties":{"poiId":"6f339214ffc64eaeb66a659d9b2681d9.16","title":"下水泉南營大將軍","type":"POKESTOP","status":"ACTIVE","s2L14":"3471b01f"}},{"type":"Feature","geometry":{"type":"Point","coordinates":[120.730606,21.929346]},"properties":{"poiId":"1386b659278c3185a1cd2828eee789ac.16","title":"下水泉泉南宮西營","type":"POKESTOP","status":"ACTIVE","s2L14":"3471b01f"}},{"type":"Feature","geometry":{"type":"Point","coordinates":[120.733209,21.92865]},"properties":{"poiId":"a2adb6add2d2490f80d67f23558c1c4c.23","title":"哈米賀海灣館 Hamihe Bay, Kenting","type":"POWERSPOT","status":"INACTIVE","s2L14":"3471b01f"}},{"type":"Feature","geometry":{"type":"Point","coordinates":[120.73207,21.92824]},"properties":{"poiId":"930fd39c42b34607aa4f79e17e019caf.23","title":"佩珊早點 - 鍋燒麵","type":"POWERSPOT","status":"INACTIVE","s2L14":"3471b01f"}},{"type":"Feature","geometry":{"type":"Point","coordinates":[120.731802,21.929469]},"properties":{"poiId":"9fc3f05ae7534416a3b996de869856d2.23","title":"水月泉會館","type":"POWERSPOT","status":"INACTIVE","s2L14":"3471b01f"}},{"type":"Feature","geometry":{"type":"Point","coordinates":[120.731804,21.928711]},"properties":{"poiId":"516c3a8e3aca3708a9aae8f2074c3a81.16","title":"玉旨南海洞南海觀音佛祖","type":"POWERSPOT","status":"INACTIVE","s2L14":"3471b01f"}},{"type":"Feature","geometry":{"type":"Point","coordinates":[120.731857,21.927676]},"properties":{"poiId":"f64732d7a60f3e428b5bd34378077d04.16","title":"福德正神","type":"GYM","status":"ACTIVE","s2L14":"3471b01f"}},{"type":"Feature","geometry":{"type":"Point","coordinates":[120.732155,21.930193]},"properties":{"poiId":"adc94892ebbb3b559bb6cb9fc493c456.16","title":"ONEPEACE壁畫","type":"POKESTOP","status":"ACTIVE","s2L14":"3471b01f"}},{"type":"Feature","geometry":{"type":"Point","coordinates":[120.731749,21.93056]},"properties":{"poiId":"e150982b93684651bad462f1eac26b7f.23","title":"墾丁 Macro Villa 私人會館 貓鼻頭2館","type":"POWERSPOT","status":"INACTIVE","s2L14":"3471b01f"}},{"type":"Feature","geometry":{"type":"Point","coordinates":[120.736468,21.926666]},"properties":{"poiId":"a3b312bf4d454b888550baa39ca48029.23","title":"晴宿 Sunny Stay","type":"POWERSPOT","status":"INACTIVE","s2L14":"3471b021"}},{"type":"Feature","geometry":{"type":"Point","coordinates":[120.738802,21.928833]},"properties":{"poiId":"5fe7dbfffe7a456b81251d1302341046.23","title":"《小屋克里夫》Small House Cliff","type":"POWERSPOT","status":"ACTIVE","s2L14":"3471b021"}},{"type":"Feature","geometry":{"type":"Point","coordinates":[120.736919,21.929395]},"properties":{"poiId":"58ff9d07b42b3f9eb0940366d0478e0a.16","title":"第二次世界大戰日本海軍巴士海峽戰歿者慰靈碑","type":"POWERSPOT","status":"INACTIVE","s2L14":"3471b021"}},{"type":"Feature","geometry":{"type":"Point","coordinates":[120.737074,21.929549]},"properties":{"poiId":"8ce63f7e1ce935af8ddb08bbc099f0d5.16","title":"貓鼻頭潮音寺","type":"POKESTOP","status":"ACTIVE","s2L14":"3471b021"}},{"type":"Feature","geometry":{"type":"Point","coordinates":[120.737186,21.929232]},"properties":{"poiId":"842e47e0991d348b9ddf84bdbbf3352c.16","title":"南無觀世音菩薩","type":"GYM","status":"ACTIVE","s2L14":"3471b021"}},{"type":"Feature","geometry":{"type":"Point","coordinates":[120.736763,21.940995]},"properties":{"poiId":"33c926e12ea04b5c9e606cac19ce4c69.23","title":"藍洞潛水Blue Hole Dive Center","type":"POWERSPOT","status":"ACTIVE","s2L14":"3471b03d"}},{"type":"Feature","geometry":{"type":"Point","coordinates":[120.73865,21.93738]},"properties":{"poiId":"720d63dc563140f4b365d1ceacac188e.23","title":"夏野旅店","type":"POWERSPOT","status":"INACTIVE","s2L14":"3471b03d"}},{"type":"Feature","geometry":{"type":"Point","coordinates":[120.735907,21.939249]},"properties":{"poiId":"e92157e5b8fc4830b8038af7eaa1c980.23","title":"星空villa","type":"POWERSPOT","status":"INACTIVE","s2L14":"3471b03d"}},{"type":"Feature","geometry":{"type":"Point","coordinates":[120.737136,21.941318]},"properties":{"poiId":"c0cbe99cac203418ac2fbadc2467de64.16","title":"美人魚","type":"POKESTOP","status":"ACTIVE","s2L14":"3471b03d"}},{"type":"Feature","geometry":{"type":"Point","coordinates":[120.7351,21.93827]},"properties":{"poiId":"779c151330e94787aba29b551b9b591c.23","title":"徜洋潛水訓練中心","type":"POWERSPOT","status":"INACTIVE","s2L14":"3471b03d"}},{"type":"Feature","geometry":{"type":"Point","coordinates":[120.735277,21.938991]},"properties":{"poiId":"946e8f234d634d71a00014dd08e813c3.16","title":"水泉社區","type":"GYM","status":"ACTIVE","s2L14":"3471b03d"}},{"type":"Feature","geometry":{"type":"Point","coordinates":[120.745866,21.931483]},"properties":{"poiId":"95e9c1525d0b465fadfa580fea2ba0bc.16","title":"第三核能發電廠興建牌","type":"GYM","status":"ACTIVE","s2L14":"3471b025"}},{"type":"Feature","geometry":{"type":"Point","coordinates":[120.744778,21.933386]},"properties":{"poiId":"f4a4a0dcd4c647cc9e355a698ecba92c.16","title":"鯨魚石","type":"POKESTOP","status":"ACTIVE","s2L14":"3471b025"}},{"type":"Feature","geometry":{"type":"Point","coordinates":[120.741302,21.929574]},"properties":{"poiId":"9aa0223b8871487ea7718a4417b812fe.16","title":"日華親善之丘","type":"POKESTOP","status":"ACTIVE","s2L14":"3471b027"}},{"type":"Feature","geometry":{"type":"Point","coordinates":[120.743256,21.940618]},"properties":{"poiId":"86cbc37aa32a389180a00464ef68677c.16","title":"看海的巨大毛伊像","type":"POWERSPOT","status":"INACTIVE","s2L14":"3471b039"}},{"type":"Feature","geometry":{"type":"Point","coordinates":[120.743643,21.942338]},"properties":{"poiId":"fb65a1a56cda47438afe72bb3eb19e83.16","title":"Octopus Mosaic","type":"POKESTOP","status":"ACTIVE","s2L14":"3471b039"}},{"type":"Feature","geometry":{"type":"Point","coordinates":[120.74573,21.945262]},"properties":{"poiId":"d587582f6052358eb6c290e8bf86c268.16","title":"艦隊分署第十四海巡隊","type":"POKESTOP","status":"ACTIVE","s2L14":"3471b039"}},{"type":"Feature","geometry":{"type":"Point","coordinates":[120.743572,21.943848]},"properties":{"poiId":"a3ed23bc442b4a5c9a9a3897238fe4f4.16","title":"Tuna Mosaic","type":"POKESTOP","status":"ACTIVE","s2L14":"3471b039"}},{"type":"Feature","geometry":{"type":"Point","coordinates":[120.742538,21.945636]},"properties":{"poiId":"a1c2ff9bafb64b1ca74395820225ae7d.23","title":"後壁湖安可浮潛粉絲團","type":"POWERSPOT","status":"INACTIVE","s2L14":"3471b039"}},{"type":"Feature","geometry":{"type":"Point","coordinates":[120.743468,21.945514]},"properties":{"poiId":"3e81f0d2782049dd97a99184614375d4.16","title":"石魟魚","type":"POWERSPOT","status":"INACTIVE","s2L14":"3471b039"}},{"type":"Feature","geometry":{"type":"Point","coordinates":[120.745422,21.940455]},"properties":{"poiId":"da3df8d20a7539c1affc7c5514d07cdf.16","title":"後壁湖海洋保護區告示牌","type":"POKESTOP","status":"ACTIVE","s2L14":"3471b039"}},{"type":"Feature","geometry":{"type":"Point","coordinates":[120.74401,21.94098]},"properties":{"poiId":"d4adf26ad2904f76813b4b66b937a53a.23","title":"恆春海鮮批發 Bbq食材","type":"POWERSPOT","status":"INACTIVE","s2L14":"3471b039"}},{"type":"Feature","geometry":{"type":"Point","coordinates":[120.745681,21.943288]},"properties":{"poiId":"0952e1bf4ba93fc4bbf8977ca91cc35d.16","title":"後壁湖漁港綠燈塔","type":"POKESTOP","status":"ACTIVE","s2L14":"3471b039"}},{"type":"Feature","geometry":{"type":"Point","coordinates":[120.743585,21.944765]},"properties":{"poiId":"e21949ad3d504a9495603370309fcd86.16","title":"後壁湖高塔","type":"POKESTOP","status":"ACTIVE","s2L14":"3471b039"}},{"type":"Feature","geometry":{"type":"Point","coordinates":[120.74326,21.943055]},"properties":{"poiId":"99123ac1f3de4d779f1df5f4a5fbb7af.16","title":"快樂圓仔","type":"POWERSPOT","status":"INACTIVE","s2L14":"3471b039"}},{"type":"Feature","geometry":{"type":"Point","coordinates":[120.743554,21.941171]},"properties":{"poiId":"b7cdf7508e91403094372d5c13769041.16","title":"後壁湖漁港","type":"POKESTOP","status":"ACTIVE","s2L14":"3471b039"}},{"type":"Feature","geometry":{"type":"Point","coordinates":[120.740936,21.945034]},"properties":{"poiId":"28e96438b56c4202abb03c91ce6ac846.16","title":"風車牆","type":"POKESTOP","status":"ACTIVE","s2L14":"3471b039"}},{"type":"Feature","geometry":{"type":"Point","coordinates":[120.743491,21.943343]},"properties":{"poiId":"25ada43e4ae6369f9c4d73225d320d07.16","title":"屏東縣恆春區漁會後壁湖漁港","type":"POWERSPOT","status":"INACTIVE","s2L14":"3471b039"}},{"type":"Feature","geometry":{"type":"Point","coordinates":[120.743659,21.941622]},"properties":{"poiId":"9e179e74ce924c0dbdd02afcb44db8f2.16","title":"Seal Mural","type":"POKESTOP","status":"ACTIVE","s2L14":"3471b039"}},{"type":"Feature","geometry":{"type":"Point","coordinates":[120.744269,21.94094]},"properties":{"poiId":"1692c54e9f4841efa3658b6b1f44871f.16","title":"海世界","type":"POKESTOP","status":"ACTIVE","s2L14":"3471b039"}},{"type":"Feature","geometry":{"type":"Point","coordinates":[120.74394,21.945253]},"properties":{"poiId":"2f3631fc9fa5483f940f165ab98ec486.16","title":"恆春漁會大樓","type":"GYM","status":"ACTIVE","s2L14":"3471b039"}},{"type":"Feature","geometry":{"type":"Point","coordinates":[120.743615,21.942895]},"properties":{"poiId":"44b71b9cd76141caaeda4dc0216320d4.16","title":"Lobster Mosaic","type":"POKESTOP","status":"ACTIVE","s2L14":"3471b039"}},{"type":"Feature","geometry":{"type":"Point","coordinates":[120.743631,21.944264]},"properties":{"poiId":"22416631909e41b9b64abb6bf9f4fd37.16","title":"Crab Mosaic","type":"POKESTOP","status":"ACTIVE","s2L14":"3471b039"}},{"type":"Feature","geometry":{"type":"Point","coordinates":[120.74511,21.94132]},"properties":{"poiId":"5b62e6336e8a4703a2b27cd4e0f66f36.23","title":"馥蘭朵墾丁度假酒店","type":"POWERSPOT","status":"INACTIVE","s2L14":"3471b039"}},{"type":"Feature","geometry":{"type":"Point","coordinates":[120.745023,21.943136]},"properties":{"poiId":"7c5df200984b305388a002c64625b2cb.16","title":"星沙灣海洋資源保護區","type":"POKESTOP","status":"ACTIVE","s2L14":"3471b039"}},{"type":"Feature","geometry":{"type":"Point","coordinates":[120.74322,21.942082]},"properties":{"poiId":"9de3b3cd5b46471e979ab0afcad30797.16","title":"東營","type":"POKESTOP","status":"ACTIVE","s2L14":"3471b039"}},{"type":"Feature","geometry":{"type":"Point","coordinates":[120.74336,21.945011]},"properties":{"poiId":"730a9fe1feb83989882ca52cfccaa994.16","title":"海錨俥舵候車亭","type":"POWERSPOT","status":"INACTIVE","s2L14":"3471b039"}},{"type":"Feature","geometry":{"type":"Point","coordinates":[120.746152,21.943586]},"properties":{"poiId":"8b68b796a3224eb5a55e7eecb1296373.16","title":"後壁湖漁港紅燈塔","type":"GYM","status":"ACTIVE","s2L14":"3471b039"}},{"type":"Feature","geometry":{"type":"Point","coordinates":[120.743775,21.94117]},"properties":{"poiId":"aedd8afbb5564570ba324937feb5b1ad.16","title":"海龜","type":"POWERSPOT","status":"INACTIVE","s2L14":"3471b039"}},{"type":"Feature","geometry":{"type":"Point","coordinates":[120.743062,21.942512]},"properties":{"poiId":"a52a13b0bdbf4571be305e942c4201e6.16","title":"傑哥和尼莫","type":"POWERSPOT","status":"INACTIVE","s2L14":"3471b039"}},{"type":"Feature","geometry":{"type":"Point","coordinates":[120.74332,21.945299]},"properties":{"poiId":"bd6f62132e8242d092687f31df05881e.16","title":"後壁湖遊艇港","type":"POKESTOP","status":"ACTIVE","s2L14":"3471b039"}},{"type":"Feature","geometry":{"type":"Point","coordinates":[120.743587,21.943557]},"properties":{"poiId":"e7f18f409bd14c968cf926f4d5592de4.16","title":"Orca Mosaic","type":"POKESTOP","status":"ACTIVE","s2L14":"3471b039"}},{"type":"Feature","geometry":{"type":"Point","coordinates":[120.743637,21.942137]},"properties":{"poiId":"0ff3113f20b94e2d9bd26d78a178ffae.16","title":"黃金魚","type":"POWERSPOT","status":"ACTIVE","s2L14":"3471b039"}},{"type":"Feature","geometry":{"type":"Point","coordinates":[120.742926,21.944971]},"properties":{"poiId":"7d4741f3dd1645b3b60fdb0ef5da00c9.23","title":"泡泡隆Diving club","type":"POWERSPOT","status":"INACTIVE","s2L14":"3471b039"}},{"type":"Feature","geometry":{"type":"Point","coordinates":[120.74479,21.938877]},"properties":{"poiId":"727a31e891934c598b72efaf61f9825e.16","title":"後壁湖海洋資源保護示範區","type":"POKESTOP","status":"ACTIVE","s2L14":"3471b03b"}},{"type":"Feature","geometry":{"type":"Point","coordinates":[120.798739,21.944637]},"properties":{"poiId":"1c57c5456921401aa09b90f3cd01d044.16","title":"墾丁椰子樹","type":"POKESTOP","status":"ACTIVE","s2L14":"3471b189"}},{"type":"Feature","geometry":{"type":"Point","coordinates":[120.79833,21.94508]},"properties":{"poiId":"55ab878f33224fa08205602b9863b00f.23","title":"50嵐墾丁店","type":"POWERSPOT","status":"INACTIVE","s2L14":"3471b189"}},{"type":"Feature","geometry":{"type":"Point","coordinates":[120.799443,21.942398]},"properties":{"poiId":"d087b0ecb55730f892770108bffdf3ba.16","title":"青年活動中心-林間小築","type":"POKESTOP","status":"ACTIVE","s2L14":"3471b189"}},{"type":"Feature","geometry":{"type":"Point","coordinates":[120.800216,21.941261]},"properties":{"poiId":"0bb2210386113fc4970f9d10b10433f9.16","title":"救國團營火晚會舞台","type":"POKESTOP","status":"ACTIVE","s2L14":"3471b189"}},{"type":"Feature","geometry":{"type":"Point","coordinates":[120.799163,21.943331]},"properties":{"poiId":"334e70c1164445f4963170ff8fb8c7e4.16","title":"中華電信-墾丁會館","type":"POKESTOP","status":"ACTIVE","s2L14":"3471b189"}},{"type":"Feature","geometry":{"type":"Point","coordinates":[120.799839,21.943156]},"properties":{"poiId":"a51bfd78114c373694ca3e7a838ee45b.16","title":"海風奇想Sea Breeze Fantasia","type":"POKESTOP","status":"ACTIVE","s2L14":"3471b189"}},{"type":"Feature","geometry":{"type":"Point","coordinates":[120.799934,21.940877]},"properties":{"poiId":"0bbdffb05eb0334cad582981ec69c05e.16","title":"青蛙石海洋遊憩公園","type":"POKESTOP","status":"ACTIVE","s2L14":"3471b189"}},{"type":"Feature","geometry":{"type":"Point","coordinates":[120.800824,21.940902]},"properties":{"poiId":"c2c68cb4d5dc38efa2e488d48f6bb7cc.16","title":"寄居蟹的家 導覽","type":"POKESTOP","status":"ACTIVE","s2L14":"3471b189"}},{"type":"Feature","geometry":{"type":"Point","coordinates":[120.800362,21.9432]},"properties":{"poiId":"3a68e0929453340091b00ac2713d979d.16","title":"雲間漫遊Mystic Cloud Journey","type":"POKESTOP","status":"ACTIVE","s2L14":"3471b189"}},{"type":"Feature","geometry":{"type":"Point","coordinates":[120.79956,21.94446]},"properties":{"poiId":"db2a452d01254fb5983029aaba2048c0.23","title":"珍饌庭園餐廳","type":"POWERSPOT","status":"INACTIVE","s2L14":"3471b189"}},{"type":"Feature","geometry":{"type":"Point","coordinates":[120.80156,21.943709]},"properties":{"poiId":"e3f910ac13af4836a984ad67328f9e1f.23","title":"牧海48旅店","type":"POWERSPOT","status":"INACTIVE","s2L14":"3471b189"}},{"type":"Feature","geometry":{"type":"Point","coordinates":[120.800302,21.943946]},"properties":{"poiId":"c1f97ac3b7ae442b92ff8c303ba9d2a4.16","title":"天主教墾丁學生活動中心","type":"POKESTOP","status":"ACTIVE","s2L14":"3471b189"}},{"type":"Feature","geometry":{"type":"Point","coordinates":[120.800005,21.944594]},"properties":{"poiId":"45c6cd01bb214bb0b42c02123681652c.16","title":"竹籤刺蝟","type":"POKESTOP","status":"ACTIVE","s2L14":"3471b189"}},{"type":"Feature","geometry":{"type":"Point","coordinates":[120.802109,21.9435]},"properties":{"poiId":"c8a6c2c189d04865a9409232b3e9423b.23","title":"墾丁大街陽光小灣民宿","type":"POWERSPOT","status":"INACTIVE","s2L14":"3471b189"}},{"type":"Feature","geometry":{"type":"Point","coordinates":[120.799865,21.940078]},"properties":{"poiId":"2606f833bb024ab190ce24223c30a68a.16","title":"西河堂","type":"POKESTOP","status":"ACTIVE","s2L14":"3471b189"}},{"type":"Feature","geometry":{"type":"Point","coordinates":[120.800281,21.944426]},"properties":{"poiId":"45bd1d26510148bdb6144003029bc0d5.16","title":"神像","type":"POWERSPOT","status":"INACTIVE","s2L14":"3471b189"}},{"type":"Feature","geometry":{"type":"Point","coordinates":[120.799406,21.941896]},"properties":{"poiId":"da234875fc0b36f88554544fccc9cc40.16","title":"青年活動中心-漆彈場入口","type":"POKESTOP","status":"ACTIVE","s2L14":"3471b189"}},{"type":"Feature","geometry":{"type":"Point","coordinates":[120.79949,21.941281]},"properties":{"poiId":"7daa40ca90b24bfabd67cdab73299d30.16","title":"青年活動中心 月駐","type":"POKESTOP","status":"ACTIVE","s2L14":"3471b189"}},{"type":"Feature","geometry":{"type":"Point","coordinates":[120.801112,21.94411]},"properties":{"poiId":"2b28d1f8702142399ef064186bd792ed.16","title":"Kenting Wall Murals","type":"POKESTOP","status":"ACTIVE","s2L14":"3471b189"}},{"type":"Feature","geometry":{"type":"Point","coordinates":[120.800228,21.9404]},"properties":{"poiId":"d1189d62e5503fdc84a785a8fcfc6f32.16","title":"濱海步道指示牌","type":"POWERSPOT","status":"INACTIVE","s2L14":"3471b189"}},{"type":"Feature","geometry":{"type":"Point","coordinates":[120.802766,21.942535]},"properties":{"poiId":"7a6246ed2eab480eb72bcc2bd9d5aa69.16","title":"墾丁青年活動中心","type":"GYM","status":"ACTIVE","s2L14":"3471b189"}},{"type":"Feature","geometry":{"type":"Point","coordinates":[120.801311,21.941264]},"properties":{"poiId":"ae830ff16f673d24810e4207157a21eb.16","title":"歡迎光臨 青年活動中心","type":"POKESTOP","status":"ACTIVE","s2L14":"3471b189"}},{"type":"Feature","geometry":{"type":"Point","coordinates":[120.801854,21.943255]},"properties":{"poiId":"f86a5868fb0c4322bb669fa660eb0b42.16","title":"三鳳宮","type":"GYM","status":"ACTIVE","s2L14":"3471b189"}},{"type":"Feature","geometry":{"type":"Point","coordinates":[120.800511,21.939809]},"properties":{"poiId":"fa95b3adaeab352ebabe476709475615.16","title":"青年活動中心-鴛鴦小徑","type":"POKESTOP","status":"ACTIVE","s2L14":"3471b189"}},{"type":"Feature","geometry":{"type":"Point","coordinates":[120.79935,21.94497]},"properties":{"poiId":"d07dd6ea4278485a8dcf523313f3d272.23","title":"安尼赫時尚旅店","type":"POWERSPOT","status":"INACTIVE","s2L14":"3471b189"}},{"type":"Feature","geometry":{"type":"Point","coordinates":[120.800124,21.941925]},"properties":{"poiId":"563d315b81903f0980b346292d6a7f82.16","title":"閩式建築風華再現","type":"POKESTOP","status":"ACTIVE","s2L14":"3471b189"}},{"type":"Feature","geometry":{"type":"Point","coordinates":[120.802041,21.943108]},"properties":{"poiId":"fd9d86642cb240708e424a4d15f8c4c0.23","title":"A cup 一個杯子旅店","type":"POWERSPOT","status":"INACTIVE","s2L14":"3471b189"}},{"type":"Feature","geometry":{"type":"Point","coordinates":[120.800417,21.944198]},"properties":{"poiId":"55b769bb796f4f5eac36af8233df636a.16","title":"墾丁天主教會","type":"POKESTOP","status":"ACTIVE","s2L14":"3471b189"}},{"type":"Feature","geometry":{"type":"Point","coordinates":[120.798919,21.939835]},"properties":{"poiId":"981c06277656312db4d6f2b1fac71914.16","title":"情人灘-垂釣區魚種圖","type":"POKESTOP","status":"ACTIVE","s2L14":"3471b189"}},{"type":"Feature","geometry":{"type":"Point","coordinates":[120.800635,21.941722]},"properties":{"poiId":"b6ef082a8b9346bc8302e21347b5bd7d.16","title":"墾丁青年活動中心","type":"POKESTOP","status":"ACTIVE","s2L14":"3471b189"}},{"type":"Feature","geometry":{"type":"Point","coordinates":[120.803508,21.943339]},"properties":{"poiId":"5252bd95a46d4b7886f7b39712fb61be.23","title":"墾丁s+潛水會館","type":"POWERSPOT","status":"INACTIVE","s2L14":"3471b189"}},{"type":"Feature","geometry":{"type":"Point","coordinates":[120.800518,21.94392]},"properties":{"poiId":"5262b1bdf4cd415eacb8dddf38fa152b.16","title":"墾丁社區活動中心","type":"POKESTOP","status":"ACTIVE","s2L14":"3471b189"}},{"type":"Feature","geometry":{"type":"Point","coordinates":[120.803021,21.942945]},"properties":{"poiId":"89433f814cb34a3aa16e3d3ca3413e2a.16","title":"墾丁十二號","type":"GYM","status":"ACTIVE","s2L14":"3471b189"}},{"type":"Feature","geometry":{"type":"Point","coordinates":[120.799291,21.940575]},"properties":{"poiId":"b7d989fdc9c741d889230589767f31f1.16","title":"青年活動中心 敘園","type":"POKESTOP","status":"ACTIVE","s2L14":"3471b189"}},{"type":"Feature","geometry":{"type":"Point","coordinates":[120.801351,21.943777]},"properties":{"poiId":"dbf5e14f07cb42c4a203c3dcbc975d73.16","title":"裝置藝術","type":"POKESTOP","status":"ACTIVE","s2L14":"3471b189"}},{"type":"Feature","geometry":{"type":"Point","coordinates":[120.799224,21.940142]},"properties":{"poiId":"1dcce94f5465386bb1c3677adeaf98a0.16","title":"青年活動中心-隴西堂","type":"POKESTOP","status":"ACTIVE","s2L14":"3471b189"}},{"type":"Feature","geometry":{"type":"Point","coordinates":[120.799121,21.945076]},"properties":{"poiId":"0264af40e1514dc494c79c34a0e5e98b.16","title":"鯊魚","type":"POKESTOP","status":"ACTIVE","s2L14":"3471b189"}},{"type":"Feature","geometry":{"type":"Point","coordinates":[120.798726,21.943561]},"properties":{"poiId":"f37eda66923435f0abf7769f88cd1b7d.16","title":"白色拼圖牆","type":"POWERSPOT","status":"INACTIVE","s2L14":"3471b189"}},{"type":"Feature","geometry":{"type":"Point","coordinates":[120.801626,21.942894]},"properties":{"poiId":"7424d329578c4b81863e0fe0b1af7eec.16","title":"墾丁金爐","type":"POKESTOP","status":"ACTIVE","s2L14":"3471b189"}},{"type":"Feature","geometry":{"type":"Point","coordinates":[120.799597,21.943486]},"properties":{"poiId":"78b8c43ed63a3a6a87f8e5169626224e.16","title":"墾丁警光會館","type":"POKESTOP","status":"INACTIVE","s2L14":"3471b189"}},{"type":"Feature","geometry":{"type":"Point","coordinates":[120.799151,21.940844]},"properties":{"poiId":"ff93c6531b8048eebb0341eda1444bb7.16","title":"華麗","type":"POWERSPOT","status":"INACTIVE","s2L14":"3471b189"}},{"type":"Feature","geometry":{"type":"Point","coordinates":[120.800864,21.944228]},"properties":{"poiId":"6b67052484d743fb955c28fed51ed0be.23","title":"墾丁Emo一黙韓式風味餐館","type":"POWERSPOT","status":"ACTIVE","s2L14":"3471b189"}},{"type":"Feature","geometry":{"type":"Point","coordinates":[120.8001,21.942977]},"properties":{"poiId":"e4163dbf8e7835eca21a1b7029386e52.16","title":"滔浪裝置藝術","type":"POWERSPOT","status":"INACTIVE","s2L14":"3471b189"}},{"type":"Feature","geometry":{"type":"Point","coordinates":[120.798594,21.940525]},"properties":{"poiId":"9aa66a78e588443fa46863b151269af6.16","title":"墾丁國家公園景點圖","type":"POKESTOP","status":"ACTIVE","s2L14":"3471b189"}},{"type":"Feature","geometry":{"type":"Point","coordinates":[120.800286,21.941047]},"properties":{"poiId":"48000c287cf237248eb5e521f42a33f8.16","title":"棋盤腳 導覽","type":"POKESTOP","status":"ACTIVE","s2L14":"3471b189"}},{"type":"Feature","geometry":{"type":"Point","coordinates":[120.800498,21.944667]},"properties":{"poiId":"d80e92f267184bdf98981bf3cfa282ad.16","title":"畜產試驗所","type":"POKESTOP","status":"ACTIVE","s2L14":"3471b189"}},{"type":"Feature","geometry":{"type":"Point","coordinates":[120.798407,21.944165]},"properties":{"poiId":"33848778101543f19d83880072af0a4d.16","title":"蜘蛛人","type":"POKESTOP","status":"ACTIVE","s2L14":"3471b189"}},{"type":"Feature","geometry":{"type":"Point","coordinates":[120.799572,21.940908]},"properties":{"poiId":"9557a2d884214cd197c4a76bdcc0eda4.16","title":"菊","type":"POKESTOP","status":"ACTIVE","s2L14":"3471b189"}},{"type":"Feature","geometry":{"type":"Point","coordinates":[120.798826,21.94252]},"properties":{"poiId":"f2eafe84e04e4bf28ae5a12c04d82bac.16","title":"萬應公祠","type":"POKESTOP","status":"ACTIVE","s2L14":"3471b189"}},{"type":"Feature","geometry":{"type":"Point","coordinates":[120.798833,21.940229]},"properties":{"poiId":"df9633fb6c703c2582b23f9975d9fece.16","title":"閩式漁船造景","type":"POKESTOP","status":"INACTIVE","s2L14":"3471b189"}},{"type":"Feature","geometry":{"type":"Point","coordinates":[120.802073,21.941986]},"properties":{"poiId":"43c34e091be9385e897cf89b6b9ec6a1.16","title":"青年活動中心-夜巡亭","type":"POKESTOP","status":"ACTIVE","s2L14":"3471b189"}},{"type":"Feature","geometry":{"type":"Point","coordinates":[120.799288,21.943929]},"properties":{"poiId":"bb347b590b4e4466846983a595a9b415.16","title":"墾丁警光會館停車場壁畫","type":"POKESTOP","status":"ACTIVE","s2L14":"3471b189"}},{"type":"Feature","geometry":{"type":"Point","coordinates":[120.798329,21.94369]},"properties":{"poiId":"ea8c544b64894b6594cc112e4d1f2bc8.16","title":"遇見墾丁1","type":"POKESTOP","status":"ACTIVE","s2L14":"3471b189"}},{"type":"Feature","geometry":{"type":"Point","coordinates":[120.799136,21.938244]},"properties":{"poiId":"cfd95a57f9a7342a8926e287f8ca6794.16","title":"青年活動中心-火山礫岩區導覽","type":"POKESTOP","status":"ACTIVE","s2L14":"3471b18b"}},{"type":"Feature","geometry":{"type":"Point","coordinates":[120.798824,21.939678]},"properties":{"poiId":"ebe691eebf213869864a3c3a397a7162.16","title":"青年活動中心-情人灘觀景台","type":"GYM","status":"ACTIVE","s2L14":"3471b18b"}},{"type":"Feature","geometry":{"type":"Point","coordinates":[120.798882,21.938578]},"properties":{"poiId":"1da8b8237f8a3a3d982fd10cc24fae53.16","title":"青年活動中心-濱海步道導覽","type":"POKESTOP","status":"ACTIVE","s2L14":"3471b18b"}},{"type":"Feature","geometry":{"type":"Point","coordinates":[120.800613,21.93794]},"properties":{"poiId":"16893c197b0c32c49b573134f53876f3.16","title":"青蛙石 導覽","type":"POKESTOP","status":"ACTIVE","s2L14":"3471b18b"}},{"type":"Feature","geometry":{"type":"Point","coordinates":[120.801544,21.939126]},"properties":{"poiId":"889685c6971a3bb4bb44028f710f331e.16","title":"青年活動中心-巨石陣涼亭","type":"POKESTOP","status":"ACTIVE","s2L14":"3471b18b"}},{"type":"Feature","geometry":{"type":"Point","coordinates":[120.801498,21.938472]},"properties":{"poiId":"b9cffbba597d3143aa195799b74a438a.16","title":"青年活動中心-一線天導覽","type":"GYM","status":"ACTIVE","s2L14":"3471b18b"}},{"type":"Feature","geometry":{"type":"Point","coordinates":[120.793655,21.946016]},"properties":{"poiId":"e2589abaf709497da5e5b8cd29dec947.16","title":"梅花鹿畫框","type":"POKESTOP","status":"ACTIVE","s2L14":"3471b18f"}},{"type":"Feature","geometry":{"type":"Point","coordinates":[120.79806,21.94421]},"properties":{"poiId":"73c0e0fd7f67444fa81a1b4a8bd2e5b3.23","title":"翡麗金旅店","type":"POWERSPOT","status":"INACTIVE","s2L14":"3471b18f"}},{"type":"Feature","geometry":{"type":"Point","coordinates":[120.794322,21.945726]},"properties":{"poiId":"ea20fd47ba114380815da77574e4e29f.11","title":"墾丁社區","type":"POKESTOP","status":"ACTIVE","s2L14":"3471b18f"}},{"type":"Feature","geometry":{"type":"Point","coordinates":[120.796029,21.945573]},"properties":{"poiId":"70d468e425e648ef90daee2c3708411b.23","title":"墾丁統茂高山青飯店","type":"POWERSPOT","status":"INACTIVE","s2L14":"3471b18f"}},{"type":"Feature","geometry":{"type":"Point","coordinates":[120.797896,21.94524]},"properties":{"poiId":"fd6f7e29f5a34680b14eb70544387878.16","title":"Wooden Flower","type":"POKESTOP","status":"ACTIVE","s2L14":"3471b18f"}},{"type":"Feature","geometry":{"type":"Point","coordinates":[120.79708,21.945224]},"properties":{"poiId":"eb092a9f1aed46f2a2358e8befe12dee.16","title":"Smokey Joe's","type":"GYM","status":"ACTIVE","s2L14":"3471b18f"}},{"type":"Feature","geometry":{"type":"Point","coordinates":[120.797972,21.944516]},"properties":{"poiId":"84ff01ff34d34c27adc2d6b728f7d688.16","title":"鹿角","type":"POKESTOP","status":"ACTIVE","s2L14":"3471b18f"}},{"type":"Feature","geometry":{"type":"Point","coordinates":[120.796662,21.945159]},"properties":{"poiId":"22d5537920184e9a84b79b5fa4b0d1e4.16","title":"水岸海豚","type":"GYM","status":"ACTIVE","s2L14":"3471b18f"}},{"type":"Feature","geometry":{"type":"Point","coordinates":[120.792519,21.945159]},"properties":{"poiId":"6af3ead9c38e49ecaca1593ddf98fd62.11","title":"夏都沙灘酒店","type":"POKESTOP","status":"ACTIVE","s2L14":"3471b18f"}},{"type":"Feature","geometry":{"type":"Point","coordinates":[120.797671,21.944305]},"properties":{"poiId":"ea22e0d12c354cb99edd8c0e90e5e871.16","title":"ㄗㄗ叫我","type":"POWERSPOT","status":"ACTIVE","s2L14":"3471b18f"}},{"type":"Feature","geometry":{"type":"Point","coordinates":[120.798183,21.943185]},"properties":{"poiId":"46cdd23dd690324fa74678774e78edfb.16","title":"墾丁濱海沙灘涼亭","type":"POKESTOP","status":"ACTIVE","s2L14":"3471b18f"}},{"type":"Feature","geometry":{"type":"Point","coordinates":[120.794706,21.945783]},"properties":{"poiId":"04926276164c4ba2991e02f955670a9c.16","title":"Golden Ocean","type":"POKESTOP","status":"ACTIVE","s2L14":"3471b18f"}},{"type":"Feature","geometry":{"type":"Point","coordinates":[120.797473,21.944652]},"properties":{"poiId":"506975eded7046819e50b63ef30c93af.11","title":"浪琴海","type":"POKESTOP","status":"ACTIVE","s2L14":"3471b18f"}},{"type":"Feature","geometry":{"type":"Point","coordinates":[120.79567,21.945237]},"properties":{"poiId":"5b844b54f2914c7cb93340b10df94fcd.16","title":"墾丁電箱-大灣路","type":"POKESTOP","status":"ACTIVE","s2L14":"3471b18f"}},{"type":"Feature","geometry":{"type":"Point","coordinates":[120.792996,21.94606]},"properties":{"poiId":"c661f349c50945f88b89da6712d720a3.16","title":"驛站","type":"POKESTOP","status":"ACTIVE","s2L14":"3471b18f"}},{"type":"Feature","geometry":{"type":"Point","coordinates":[120.7962,21.944368]},"properties":{"poiId":"eb589ca7d67a4ba6b2c2c8de91683ecf.16","title":"大灣福德祠","type":"POKESTOP","status":"ACTIVE","s2L14":"3471b18f"}},{"type":"Feature","geometry":{"type":"Point","coordinates":[120.798094,21.94344]},"properties":{"poiId":"e80d3e9ea1f148128a84397ce98a9212.16","title":"墾丁之珠","type":"POKESTOP","status":"ACTIVE","s2L14":"3471b18f"}},{"type":"Feature","geometry":{"type":"Point","coordinates":[120.80725,21.940949]},"properties":{"poiId":"87b93a91396440b3890598ca27e1b71d.23","title":"星巴克","type":"POWERSPOT","status":"INACTIVE","s2L14":"3471b227"}},{"type":"Feature","geometry":{"type":"Point","coordinates":[120.804581,21.941914]},"properties":{"poiId":"88065549871c4bfc8f0b6ca667054e7b.16","title":"藝術彩繪變電箱","type":"POKESTOP","status":"ACTIVE","s2L14":"3471b227"}},{"type":"Feature","geometry":{"type":"Point","coordinates":[120.806463,21.941762]},"properties":{"poiId":"cf5e343128da48b2a352b8ead7faa2d4.16","title":"福華木飾","type":"POKESTOP","status":"ACTIVE","s2L14":"3471b227"}},{"type":"Feature","geometry":{"type":"Point","coordinates":[120.804925,21.941712]},"properties":{"poiId":"099b9fef80af4201b7a85b93b07a0f00.23","title":"墾丁小灣沙灘","type":"POWERSPOT","status":"INACTIVE","s2L14":"3471b227"}},{"type":"Feature","geometry":{"type":"Point","coordinates":[120.807089,21.941583]},"properties":{"poiId":"af604e7736754779bb0b746ad3606e39.23","title":"墾丁福華渡假飯店","type":"POWERSPOT","status":"ACTIVE","s2L14":"3471b227"}},{"type":"Feature","geometry":{"type":"Point","coordinates":[120.806898,21.942085]},"properties":{"poiId":"b99602594b0f4cd0991d51fc73684edd.16","title":"福華 祈福樹","type":"POWERSPOT","status":"INACTIVE","s2L14":"3471b227"}},{"type":"Feature","geometry":{"type":"Point","coordinates":[120.807366,21.940122]},"properties":{"poiId":"4ed283b6a1cc4382aeead89f4989fd34.16","title":"海浪","type":"GYM","status":"ACTIVE","s2L14":"3471b227"}},{"type":"Feature","geometry":{"type":"Point","coordinates":[120.806009,21.941858]},"properties":{"poiId":"f383afbe5b114e3e8cca007e363c630f.16","title":"花型噴水池","type":"POKESTOP","status":"ACTIVE","s2L14":"3471b227"}},{"type":"Feature","geometry":{"type":"Point","coordinates":[120.80715,21.942242]},"properties":{"poiId":"5c1bcf1cafab42a8b7eabc7f84b138fa.16","title":"人面椅","type":"POKESTOP","status":"ACTIVE","s2L14":"3471b227"}},{"type":"Feature","geometry":{"type":"Point","coordinates":[120.806504,21.941208]},"properties":{"poiId":"dbdd543997f442c59880832b19856ea1.16","title":"原住民圖騰","type":"POKESTOP","status":"ACTIVE","s2L14":"3471b227"}},{"type":"Feature","geometry":{"type":"Point","coordinates":[120.807519,21.940417]},"properties":{"poiId":"eeb997ee12b74e85883a3c09e148e0db.23","title":"墾丁水世界","type":"POWERSPOT","status":"INACTIVE","s2L14":"3471b227"}},{"type":"Feature","geometry":{"type":"Point","coordinates":[120.807922,21.939506]},"properties":{"poiId":"728e6c54f64048779a61f98fe4624126.16","title":"土地公","type":"POKESTOP","status":"ACTIVE","s2L14":"3471b227"}},{"type":"Feature","geometry":{"type":"Point","coordinates":[120.806335,21.942009]},"properties":{"poiId":"247ddc657d8c43049164fa8fcb5c3ff3.16","title":"小灣沙灘TUNNEL BEACH","type":"POWERSPOT","status":"INACTIVE","s2L14":"3471b227"}},{"type":"Feature","geometry":{"type":"Point","coordinates":[120.804771,21.941862]},"properties":{"poiId":"b19a77320ed34ae79a592553f95afb0e.16","title":"小灣沙灘","type":"GYM","status":"ACTIVE","s2L14":"3471b227"}},{"type":"Feature","geometry":{"type":"Point","coordinates":[120.805372,21.942783]},"properties":{"poiId":"118d9f8415a2496c8a7c7c9e4533d79a.23","title":"大廳酒吧 Lobby Lounge","type":"POWERSPOT","status":"INACTIVE","s2L14":"3471b227"}},{"type":"Feature","geometry":{"type":"Point","coordinates":[120.805029,21.942664]},"properties":{"poiId":"0665dbb00ab243b39597c7aecb3b1707.16","title":"凱撒PUP","type":"POKESTOP","status":"ACTIVE","s2L14":"3471b227"}},{"type":"Feature","geometry":{"type":"Point","coordinates":[120.804957,21.942419]},"properties":{"poiId":"9235599bec844ff989b3c16722b8177d.16","title":"Caesar Park Hotel Kenting's Deco（墾丁凱撒大飯店）","type":"POKESTOP","status":"ACTIVE","s2L14":"3471b227"}},{"type":"Feature","geometry":{"type":"Point","coordinates":[120.807524,21.941855]},"properties":{"poiId":"266675c76501498f9e5514a8852532af.16","title":"太陽圖騰","type":"POKESTOP","status":"ACTIVE","s2L14":"3471b227"}},{"type":"Feature","geometry":{"type":"Point","coordinates":[120.818484,21.937224]},"properties":{"poiId":"96e0a423f5d037b39143d45fe279fc34.16","title":"墾丁福容門口","type":"POKESTOP","status":"ACTIVE","s2L14":"3471b23b"}},{"type":"Feature","geometry":{"type":"Point","coordinates":[120.817775,21.936363]},"properties":{"poiId":"32b905723eaa410b824819ab41670464.16","title":"戲水設施","type":"GYM","status":"ACTIVE","s2L14":"3471b23b"}},{"type":"Feature","geometry":{"type":"Point","coordinates":[120.818229,21.936398]},"properties":{"poiId":"eccfbf44f7654ac181c6f6a9ac0097a4.23","title":"墾丁福容大飯店","type":"POWERSPOT","status":"INACTIVE","s2L14":"3471b23b"}},{"type":"Feature","geometry":{"type":"Point","coordinates":[120.819412,21.93691]},"properties":{"poiId":"a2cf4510714742c6aca8da269bba47ac.23","title":"墾丁姊妹沙灘別墅 Four sisters villa","type":"POWERSPOT","status":"ACTIVE","s2L14":"3471b23b"}},{"type":"Feature","geometry":{"type":"Point","coordinates":[120.816726,21.937]},"properties":{"poiId":"9d0300a150033709b353ce9c3d40bfa5.16","title":"船帆路1000號咖啡廳","type":"POKESTOP","status":"ACTIVE","s2L14":"3471b23b"}},{"type":"Feature","geometry":{"type":"Point","coordinates":[120.818155,21.937702]},"properties":{"poiId":"ef86482dfc3c3cbcbbb73dd3d2813b3b.16","title":"海豚牆","type":"POKESTOP","status":"ACTIVE","s2L14":"3471b23b"}},{"type":"Feature","geometry":{"type":"Point","coordinates":[120.819407,21.936411]},"properties":{"poiId":"88f108de561f30e99cdc07e2778844af.16","title":"4 Sister Villa 姊妹沙灘別宿","type":"POKESTOP","status":"ACTIVE","s2L14":"3471b23b"}},{"type":"Feature","geometry":{"type":"Point","coordinates":[120.822038,21.936486]},"properties":{"poiId":"80edbe0aae364d3f8a9587425181beca.23","title":"墾丁椰林會館","type":"POWERSPOT","status":"INACTIVE","s2L14":"3471b239"}},{"type":"Feature","geometry":{"type":"Point","coordinates":[120.823703,21.934723]},"properties":{"poiId":"7f951e5254b74f078ca4c9126f668464.16","title":"室外籃球場","type":"POKESTOP","status":"ACTIVE","s2L14":"3471b239"}},{"type":"Feature","geometry":{"type":"Point","coordinates":[120.821657,21.935995]},"properties":{"poiId":"e218fd64e7c23b489d50af080e6af073.16","title":"四一七號橋","type":"POKESTOP","status":"ACTIVE","s2L14":"3471b239"}},{"type":"Feature","geometry":{"type":"Point","coordinates":[120.823312,21.935791]},"properties":{"poiId":"e3cfe516e98d35b4a28ca8c619f8dfd7.16","title":"花園壁畫","type":"POKESTOP","status":"ACTIVE","s2L14":"3471b239"}},{"type":"Feature","geometry":{"type":"Point","coordinates":[120.821933,21.935998]},"properties":{"poiId":"9cf46423673840f7b085510116d231dc.23","title":"墾丁椰林海灘文旅 Ye-Lin Villa","type":"POWERSPOT","status":"INACTIVE","s2L14":"3471b239"}},{"type":"Feature","geometry":{"type":"Point","coordinates":[120.823231,21.937048]},"properties":{"poiId":"64e3a3a3768a430a903b8562515da468.23","title":"墾丁小徑民宿","type":"POWERSPOT","status":"INACTIVE","s2L14":"3471b239"}},{"type":"Feature","geometry":{"type":"Point","coordinates":[120.822577,21.934977]},"properties":{"poiId":"35fdc59fe2034e0c9bfafe231f3ef64b.16","title":"墾丁萬聖宮","type":"GYM","status":"ACTIVE","s2L14":"3471b239"}},{"type":"Feature","geometry":{"type":"Point","coordinates":[120.823419,21.935967]},"properties":{"poiId":"d026bf5f3b36396d82b54c16545d1956.16","title":"張船長的船","type":"POKESTOP","status":"ACTIVE","s2L14":"3471b239"}},{"type":"Feature","geometry":{"type":"Point","coordinates":[120.823359,21.936271]},"properties":{"poiId":"37f2faef81354a8c907de9109dc31133.23","title":"船帆石 原宿","type":"POWERSPOT","status":"INACTIVE","s2L14":"3471b239"}},{"type":"Feature","geometry":{"type":"Point","coordinates":[120.823646,21.93576]},"properties":{"poiId":"5e41beeeb4894a3784da1b4cd9396ad9.23","title":"墾丁土豆的家","type":"POWERSPOT","status":"INACTIVE","s2L14":"3471b239"}},{"type":"Feature","geometry":{"type":"Point","coordinates":[120.822937,21.935669]},"properties":{"poiId":"da83db655d593a6ebefbe6e982b52499.16","title":"花園涼亭","type":"POWERSPOT","status":"ACTIVE","s2L14":"3471b239"}},{"type":"Feature","geometry":{"type":"Point","coordinates":[120.822749,21.936427]},"properties":{"poiId":"f4916243302748d992ee052a0d2f59fd.16","title":"國王的椅子","type":"GYM","status":"ACTIVE","s2L14":"3471b239"}},{"type":"Feature","geometry":{"type":"Point","coordinates":[120.822304,21.93567]},"properties":{"poiId":"ca5f3f5709653cb893f6a5e004f405d4.16","title":"四一八號橋","type":"POKESTOP","status":"ACTIVE","s2L14":"3471b239"}},{"type":"Feature","geometry":{"type":"Point","coordinates":[120.824114,21.931328]},"properties":{"poiId":"a2b3f604272f45e5bfde16191c9dc83e.16","title":"船帆石","type":"GYM","status":"ACTIVE","s2L14":"3471b23f"}},{"type":"Feature","geometry":{"type":"Point","coordinates":[120.82482,21.933169]},"properties":{"poiId":"d3d6674a9ac93730ad4dbbee88f42ea6.16","title":"貝殼壁畫","type":"POKESTOP","status":"ACTIVE","s2L14":"3471b23f"}},{"type":"Feature","geometry":{"type":"Point","coordinates":[120.824925,21.932029]},"properties":{"poiId":"d1b76555d2804d119c1652e990d8ba51.23","title":"月居旅店","type":"POWERSPOT","status":"INACTIVE","s2L14":"3471b23f"}},{"type":"Feature","geometry":{"type":"Point","coordinates":[120.823826,21.933526]},"properties":{"poiId":"8dfc5aea59334d8ca3bbd36cb7e7fc8b.23","title":"Seya Inn  聖亞旅店","type":"POWERSPOT","status":"INACTIVE","s2L14":"3471b23f"}},{"type":"Feature","geometry":{"type":"Point","coordinates":[120.82484,21.93232]},"properties":{"poiId":"eaba3c11f81740c192f89ee14c177269.23","title":"612海鮮餐廳(原鮮魚客棧)","type":"POWERSPOT","status":"INACTIVE","s2L14":"3471b23f"}},{"type":"Feature","geometry":{"type":"Point","coordinates":[120.823837,21.934009]},"properties":{"poiId":"eb935a1af66a4ad1967d1a62a3d890ca.23","title":"墾丁民宿海之戀","type":"POWERSPOT","status":"INACTIVE","s2L14":"3471b23f"}},{"type":"Feature","geometry":{"type":"Point","coordinates":[120.822407,21.934804]},"properties":{"poiId":"8ea46e6993044514b9bf0d8b35632cd1.16","title":"銀爐","type":"POKESTOP","status":"ACTIVE","s2L14":"3471b23f"}},{"type":"Feature","geometry":{"type":"Point","coordinates":[120.82408,21.93316]},"properties":{"poiId":"2e4c0f670d69473c9258b9d61e87f477.23","title":"HAKU café 。HAKU 咖啡","type":"POWERSPOT","status":"INACTIVE","s2L14":"3471b23f"}},{"type":"Feature","geometry":{"type":"Point","coordinates":[120.824836,21.934035]},"properties":{"poiId":"48d15456eb1c4b0d98c8e4a07dc94993.16","title":"沈家山莊渡假中心","type":"POWERSPOT","status":"INACTIVE","s2L14":"3471b23f"}},{"type":"Feature","geometry":{"type":"Point","coordinates":[120.824515,21.932808]},"properties":{"poiId":"0e5aa48e622e4ae1bae3195b28d5ab20.16","title":"小丑魚壁畫","type":"POKESTOP","status":"ACTIVE","s2L14":"3471b23f"}},{"type":"Feature","geometry":{"type":"Point","coordinates":[120.823902,21.933302]},"properties":{"poiId":"fece8efab4ad4d2897950dff95bb433f.16","title":"岩手","type":"GYM","status":"ACTIVE","s2L14":"3471b23f"}},{"type":"Feature","geometry":{"type":"Point","coordinates":[120.824194,21.933367]},"properties":{"poiId":"1b8c6eb9872a3d54973c3300dcba6732.16","title":"澆海女孩","type":"POKESTOP","status":"ACTIVE","s2L14":"3471b23f"}},{"type":"Feature","geometry":{"type":"Point","coordinates":[120.824464,21.933589]},"properties":{"poiId":"b1c834e67b5641a4b30c619b1e428263.23","title":"磐石旅店","type":"POWERSPOT","status":"INACTIVE","s2L14":"3471b23f"}},{"type":"Feature","geometry":{"type":"Point","coordinates":[120.823758,21.933018]},"properties":{"poiId":"eb0a605499b94dfd82bcdebb50abb360.16","title":"墾丁船帆石解說牌","type":"POKESTOP","status":"ACTIVE","s2L14":"3471b23f"}},{"type":"Feature","geometry":{"type":"Point","coordinates":[120.824865,21.93378]},"properties":{"poiId":"616d01bba81d4454a53ec324ee8d1b10.16","title":"愛妳一萬年","type":"POKESTOP","status":"ACTIVE","s2L14":"3471b23f"}},{"type":"Feature","geometry":{"type":"Point","coordinates":[120.823504,21.934284]},"properties":{"poiId":"c93b10a4db534318ba414ab870875395.16","title":"彩繪花牆","type":"POKESTOP","status":"ACTIVE","s2L14":"3471b23f"}},{"type":"Feature","geometry":{"type":"Point","coordinates":[120.822916,21.934448]},"properties":{"poiId":"5c101d5d1e9d3b2182424b179de07018.16","title":"船帆路教會十字架","type":"POKESTOP","status":"ACTIVE","s2L14":"3471b23f"}},{"type":"Feature","geometry":{"type":"Point","coordinates":[120.823792,21.934506]},"properties":{"poiId":"a867f5019ab04f60adcb275b4ea1b8dd.23","title":"墾丁日光.寓","type":"POWERSPOT","status":"ACTIVE","s2L14":"3471b23f"}},{"type":"Feature","geometry":{"type":"Point","coordinates":[120.823412,21.93361]},"properties":{"poiId":"361ae1a6cb5746359e0eb4e4be5fad10.16","title":"船帆石","type":"POWERSPOT","status":"INACTIVE","s2L14":"3471b23f"}},{"type":"Feature","geometry":{"type":"Point","coordinates":[120.825275,21.931874]},"properties":{"poiId":"d21bdaec48a63420902115a8e58e8197.16","title":"聖母噴水池","type":"POKESTOP","status":"ACTIVE","s2L14":"3471b23f"}},{"type":"Feature","geometry":{"type":"Point","coordinates":[120.824385,21.932227]},"properties":{"poiId":"fefb94a88832415e80c9f8f0b85d72f4.16","title":"玄武宮","type":"POKESTOP","status":"ACTIVE","s2L14":"3471b23f"}},{"type":"Feature","geometry":{"type":"Point","coordinates":[120.82811,21.928946]},"properties":{"poiId":"099221c4ae1e4df9b2453d913cf9354b.16","title":"香蕉灣熱帶海岸林","type":"POKESTOP","status":"ACTIVE","s2L14":"3471b241"}},{"type":"Feature","geometry":{"type":"Point","coordinates":[120.836362,21.939536]},"properties":{"poiId":"ffe53ad10a8b4425b667298166b0f029.16","title":"墾丁南天宮","type":"GYM","status":"ACTIVE","s2L14":"3471b24f"}},{"type":"Feature","geometry":{"type":"Point","coordinates":[120.838348,21.940448]},"properties":{"poiId":"9bc03f156b5f39de9cb3071545adcbd5.16","title":"水蛙窟-波浪造型候車亭","type":"POKESTOP","status":"ACTIVE","s2L14":"3471b24f"}},{"type":"Feature","geometry":{"type":"Point","coordinates":[120.837226,21.939412]},"properties":{"poiId":"915197c52baf4597ae6e04e8371f5061.23","title":"水蛙窟生態社區","type":"POWERSPOT","status":"ACTIVE","s2L14":"3471b24f"}},{"type":"Feature","geometry":{"type":"Point","coordinates":[120.841187,21.938362]},"properties":{"poiId":"057f9a164a1347b5ba2bbf65d2310ac7.16","title":"水蛙窟","type":"POKESTOP","status":"ACTIVE","s2L14":"3471b251"}},{"type":"Feature","geometry":{"type":"Point","coordinates":[120.84037,21.937]},"properties":{"poiId":"c28d5e23703949aa84ee23ce9b76a0ad.23","title":"墾丁水蛙窟101旅宿","type":"POWERSPOT","status":"ACTIVE","s2L14":"3471b251"}},{"type":"Feature","geometry":{"type":"Point","coordinates":[120.843579,21.927934]},"properties":{"poiId":"294b803ca61e4ca4b8264f23b1c8c964.16","title":"長安國際中心","type":"POKESTOP","status":"ACTIVE","s2L14":"3471b25d"}},{"type":"Feature","geometry":{"type":"Point","coordinates":[120.832959,21.925866]},"properties":{"poiId":"33eb566f4b1a434995e1d6ace357d54e.23","title":"墾丁香蕉灣 原始林  露營區","type":"POWERSPOT","status":"ACTIVE","s2L14":"3471b269"}},{"type":"Feature","geometry":{"type":"Point","coordinates":[120.831427,21.925449]},"properties":{"poiId":"569869a6a24342fdb0fb738a1adc5254.16","title":"香蕉灣漁港安檢所","type":"POKESTOP","status":"ACTIVE","s2L14":"3471b26b"}},{"type":"Feature","geometry":{"type":"Point","coordinates":[120.83187,21.92549]},"properties":{"poiId":"443301f50e454a8fa72ce959ba8a9787.23","title":"墾丁米舍海景民宿 粉絲頁","type":"POWERSPOT","status":"ACTIVE","s2L14":"3471b26b"}},{"type":"Feature","geometry":{"type":"Point","coordinates":[120.832297,21.925041]},"properties":{"poiId":"20abc2a61a814288accc56cb8bd661dc.16","title":"鎮海宮","type":"GYM","status":"ACTIVE","s2L14":"3471b26b"}},{"type":"Feature","geometry":{"type":"Point","coordinates":[120.832136,21.925653]},"properties":{"poiId":"b75c79658ddb307f91b80c780f3b426b.16","title":"香蕉灣玉旨天上聖母慈聖宮","type":"POKESTOP","status":"ACTIVE","s2L14":"3471b26b"}},{"type":"Feature","geometry":{"type":"Point","coordinates":[120.831565,21.926002]},"properties":{"poiId":"8a6d489f79e74d4585bf8570ffbfbe79.16","title":"香蕉灣之海洋風情","type":"POKESTOP","status":"ACTIVE","s2L14":"3471b26b"}},{"type":"Feature","geometry":{"type":"Point","coordinates":[120.844981,21.930269]},"properties":{"poiId":"9d75bfb7d0764605943e015e9cdcce9e.16","title":"龍磐公園","type":"GYM","status":"ACTIVE","s2L14":"3471b259"}},{"type":"Feature","geometry":{"type":"Point","coordinates":[120.845588,21.930524]},"properties":{"poiId":"8a3353859d543351888f71e8df588375.16","title":"龍磐公園 保安林","type":"POKESTOP","status":"ACTIVE","s2L14":"3471b259"}},{"type":"Feature","geometry":{"type":"Point","coordinates":[120.848,21.927398]},"properties":{"poiId":"3451be0c5d684719b104d047ea45399c.16","title":"崩崖地形","type":"POKESTOP","status":"ACTIVE","s2L14":"3471b25f"}},{"type":"Feature","geometry":{"type":"Point","coordinates":[120.847674,21.925515]},"properties":{"poiId":"ce714bbfaf814425bf6a4b898c1ac7ff.16","title":"龍磐公園","type":"GYM","status":"ACTIVE","s2L14":"3471b25f"}},{"type":"Feature","geometry":{"type":"Point","coordinates":[120.851367,21.923644]},"properties":{"poiId":"06a5723638214c05982d379a8c336f84.16","title":"好大的高爾夫球","type":"POKESTOP","status":"ACTIVE","s2L14":"3471b2f5"}}]}